Main_Atlas_Number,Main_Display_Name,Main_X,Main_Y,Location_X,Location_Y,Location_Longitude,Location_Latitude,Density,Density_trans,Location_Current_County,Location_Historic_County,Location_Current_Parish
1,"Aconbury Camp, Herefordshire (Aconbury Beacon)",350350,233050,-303295,6798973,-2.72454821018933,51.9936282551893,1.63285871827997e-12,-3.8024033400668156,Herefordshire,Herefordshire,Aconbury
2,"Bach Camp, Herefordshire",354700,260200,-296646,6843289,-2.66481892241934,52.2380821031319,1.5401719213070566e-12,-3.8024496792915072,Herefordshire,Herefordshire,Kimbolton
3,"Backbury Camp, Herefordshire (Ethelbert's Camp)",358700,238900,-289837,6808611,-2.60365082821158,52.0469070551219,1.5477286004589884e-12,-3.802445825479162,Herefordshire,Herefordshire,Dormington
4,"Brandon Camp, Herefordshire",340000,272400,-320850,6862993,-2.88224216095126,52.3463438788693,1.670548018493182e-12,-3.8023850510826263,Herefordshire,Herefordshire,Adforton
5,"British Camp, Herefordshire (Herefordshire Beacon)",376000,240000,-261765,6810587,-2.35147180098148,52.0578189151605,1.3699808698777013e-12,-3.8025404184563283,Herefordshire,Herefordshire,Colwall
6,"Broad Oak, Garway, Herefordshire",343670,224476,-313968,6784935,-2.82042031420224,51.9159091887587,1.6820997302514635e-12,-3.8023795064903942,Herefordshire,Herefordshire,Garway
7,"Capler Camp, Herefordshire (Woldbury; Wobury)",359300,232900,-288784,6798862,-2.59418716203334,51.9930093560673,1.5506836337807293e-12,-3.802444322221477,Herefordshire,Herefordshire,Brockhampton (Ross on Wye)
8,"Chase Wood Camp, Herefordshire",360214,222396,-287166,6781819,-2.57965755460813,51.898639522983,1.5511505667770376e-12,-3.8024440848808285,Herefordshire,Herefordshire,Ross Rural
9,"Cherry Hill Camp, Herefordshire (Fownhope Camp)",357740,235213,-291344,6802601,-2.6171918621245,52.0136872450457,1.5626524127628071e-12,-3.802438255085132,Herefordshire,Herefordshire,Fownhope
10,"Coxall Knoll Camp, Herefordshire",336600,273400,-326426,6864561,-2.93233666785443,52.35494986823,1.702188143129012e-12,-3.802369930941651,Herefordshire,Herefordshire,Buckton and Coxall
11,"Credenhill Camp, Herefordshire",345100,244600,-312013,6817677,-2.8028622748502,52.0969668132477,1.6754178135612738e-12,-3.8023827102422825,Herefordshire,Herefordshire,Credenhill
12,"Croft Ambrey, Herefordshire",344400,266800,-313557,6853909,-2.81672968107888,52.2964674127665,1.6404074593983464e-12,-3.802399652251754,Herefordshire,Herefordshire,Aymestry
13,"Dinedor Camp, Herefordshire (Oyster Hill)",352360,236350,-300088,6804371,-2.69573603204205,52.0234723531494,1.6128182773974992e-12,-3.8024131918523567,Herefordshire,Herefordshire,Dinedor
14,"Dinmore Hill, Herefordshire",352000,251900,-300916,6829695,-2.70317672094653,52.1632367027665,1.5936605660505326e-12,-3.8024226944276736,Herefordshire,Herefordshire,Hope under Dinmore
15,"Dorstone Hill, Herefordshire",332710,242160,-332091,6813456,-2.98322408531953,52.0736623190488,1.7788728360732836e-12,-3.8023341261041486,Herefordshire,Herefordshire,Dorstone
16,"Downton Camp, Herefordshire",342880,273100,-316157,6864196,-2.84008779906405,52.3529445168303,1.6362995970204473e-12,-3.802401657525889,Herefordshire,Herefordshire,Downton
17,"Eaton Camp, Herefordshire",345400,239300,-311431,6809054,-2.79763374572334,52.0493501118996,1.675513524921343e-12,-3.8023826642855,Herefordshire,Herefordshire,Eaton Bishop
18,"Gaer Cop, Herefordshire",353626,225204,-297866,6786282,-2.67577743463769,51.9233740458899,1.6052862573517625e-12,-3.8024169178933094,Herefordshire,Herefordshire,Hentland
19,"Garmsley Camp, Worcestershire (The Wrathes)",362042,261835,-284699,6846062,-2.55749073923361,52.2533374087338,1.444468080440196e-12,-3.8024997372873184,Worcestershire,Herefordshire,Stoke Bliss
20,"Haffield Camp, Herefordshire",372320,233940,-267685,6800697,-2.40465195980016,52.0031635470999,1.4245186309214888e-12,-3.802510478104529,Herefordshire,Herefordshire,Donnington
21,"Ivington Camp, Herefordshire",348446,254689,-306747,6834188,-2.75555520164609,52.1879882020054,1.6266484851088223e-12,-3.802406383410525,Herefordshire,Herefordshire,Leominster
22,"Little Doward, Herefordshire",353900,216000,-297285,6771364,-2.6705609941396,51.8406488059884,1.598436071713835e-12,-3.802420317843148,Herefordshire,Herefordshire,Ganarew
23,"Mere Hill, Herefordshire (Mere Hill Wood)",340650,265550,-319653,6851793,-2.87149090084873,52.2848376609406,1.6846781582021727e-12,-3.802378272730458,Herefordshire,Herefordshire,Aymestry
24,"Midsummer Hill, Herefordshire (Midsummer Hill Camp)",376100,237400,-261582,6806356,-2.34983074155244,52.0344475882584,1.377961635971268e-12,-3.802535982894035,Herefordshire,Herefordshire,Eastnor
25,"Oldbury, Much Marcle, Herefordshire",363206,232563,-282447,6798363,-2.53726600604489,51.9902527802592,1.5142147986170382e-12,-3.802463024217031,Herefordshire,Herefordshire,Much Marcle
26,"Pen-Twyn Camp, Brilley, Herefordshire (Pen Twyn Camp)",322830,248550,-348296,6823631,-3.1287995625744,52.1298114591765,1.8436371899541043e-12,-3.802304763043696,Herefordshire,Herefordshire,Brilley
27,"Penapark, Herefordshire (Pen y Park)",338332,225716,-322631,6786845,-2.89824366695265,51.9264901832259,1.72087182680641e-12,-3.802361099474218,Herefordshire,Herefordshire,Peterchurch
28,"Poston Camp, Herefordshire (Lower Park Wood Camp)",335900,237650,-326816,6806185,-2.93583965099981,52.0334982617918,1.7528515141599485e-12,-3.802346145876604,Herefordshire,Herefordshire,Vowchurch
29,"Pyon Wood, Herefordshire",342300,266400,-316977,6853215,-2.84745099480056,52.2926547031512,1.6647750406263904e-12,-3.80238783259563,Herefordshire,Herefordshire,Aymestrey
30,"Risbury Camp, Herefordshire",354200,255300,-297387,6835278,-2.67147592196827,52.1939899860853,1.5605434967526777e-12,-3.8024393216308954,Herefordshire,Herefordshire,Humber
31,"Sutton Walls, Herefordshire",352520,246358,-299984,6820666,-2.69479940271272,52.1134591627816,1.598839655489223e-12,-3.802420117235102,Herefordshire,Herefordshire,Sutton
32,"Timberline, Herefordshire (Timberline Camp)",338770,236807,-322143,6804872,-2.89385690955267,52.0262447418022,1.7306595605724993e-12,-3.802356501161674,Herefordshire,Herefordshire,Madley
33,"Uphampton Camp, Herefordshire",357003,258305,-292865,6840226,-2.63085386137694,52.2212311971752,1.518662911570904e-12,-3.8024607254681513,Herefordshire,Herefordshire,Docklow and Hampton Wafer
34,"Wall Hills Camp, Ledbury, Herefordshire (Wall Hills, Ledbury)",369074,238213,-272991,6807616,-2.45232375889108,52.0414083181544,1.444471717229983e-12,-3.8024997353392638,Herefordshire,Herefordshire,Ledbury
35,"Wall Hills, Thornbury, Herefordshire",362997,259784,-283116,6842722,-2.54327611528302,52.2349639408043,1.440774506086241e-12,-3.8025017176281417,Herefordshire,Herefordshire,Thornbury
36,"Walterstone Camp, Herefordshire (Coed-y-Grafel)",334889,225082,-328191,6785745,-2.94818698200361,51.9203980022229,1.7414195650382156e-12,-3.802351468142985,Herefordshire,Herefordshire,Walterstone
37,"Wapley Camp, Herefordshire",334500,262400,-329620,6846514,-2.96102278811282,52.2558220298795,1.7512867833598593e-12,-3.802346872839343,Herefordshire,Herefordshire,Staunton on Arrow
38,"Westington Camp, Herefordshire",358000,256650,-291218,6837537,-2.61605409461321,52.2064297960985,1.5120975936283936e-12,-3.8024641201205123,Herefordshire,Herefordshire,Grendon Bishop
39,"Abdon Burf, Shropshire",359505,286605,-289169,6886624,-2.59765120321114,52.4758342601982,1.3574385034657226e-12,-3.80254742792245,Shropshire,Shropshire,Abdon
40,"Billings Ring, Shropshire",336990,287940,-326094,6888426,-2.92935531663161,52.4856957641752,1.6347878160092456e-12,-3.8024023964438083,Shropshire,Shropshire,Lydbury North
41,"Blodwell Rock, Shropshire",326668,322932,-343879,6945890,-3.0891196811042,52.7989223120273,1.4626479976042912e-12,-3.80249004401616,Shropshire,Shropshire,Llanyblodwell
42,"Knuck Wood, Shropshire (Birches Bank)",327605,286738,-341448,6886239,-3.06727737763451,52.4737253227936,1.726573105109284e-12,-3.8023584186559183,Shropshire,Shropshire,Mainstone
43,"Bodbury Ring, Shropshire",344503,294794,-313907,6899847,-2.8198745373615,52.5481247682507,1.5088391729586342e-12,-3.8024658089501213,Shropshire,Shropshire,Church Stretton
44,"Bulthy Hill, Shropshire",331359,313704,-335920,6930747,-3.0176195031634,52.7165963719676,1.5105605850956664e-12,-3.8024649164127595,Shropshire,Shropshire,Wollaston
45,"Burf Castle, Shropshire",376282,290862,-261707,6893802,-2.35095341916362,52.5150943941966,1.1058527371120575e-12,-3.8026993330329466,Shropshire,Shropshire,Claverley
46,"Burrow Hill Camp, Shropshire (Burrow Hill)",338204,283072,-324004,6880457,-2.91057647130002,52.4420762242695,1.6462899463415167e-12,-3.802396787121905,Shropshire,Shropshire,Hopesay
47,"Bury Ditches, Shropshire",332743,283738,-332961,6881432,-2.99104006609524,52.4474170157594,1.6976155404470026e-12,-3.8023721032121176,Shropshire,Shropshire,Lydbury North
48,"Bury Walls, Shropshire",357689,327559,-292732,6954166,-2.62965472366038,52.8438452258377,1.0891531969625842e-12,-3.8027102863345537,Shropshire,Shropshire,Weston-under-Redcastle
49,"Caer Caradoc, Clun, Shropshire (Caer Caradoc, Chapel Lawn; Gaer Ditches)",331014,275798,-335610,6868368,-3.0148362115961,52.3758297889542,1.7454472673697573e-12,-3.8023495900721356,Shropshire,Shropshire,Clun
50,"Caer Caradoc, Church Stretton, Shropshire",347728,295280,-308622,6900705,-2.77239596768484,52.5528133192448,1.4649000311150217e-12,-3.8024888494577933,Shropshire,Shropshire,Church Stretton
51,"Caerbre, Shropshire (Chirbury)",327477,296437,-341893,6902184,-3.07127997858807,52.5608879382222,1.6722707811643375e-12,-3.802384222401084,Shropshire,Shropshire,Chirbury with Brompton
52,"Caer-Din Ring, Shropshire (Caer Din Ring)",324072,285048,-347194,6883375,-3.11889626898094,52.4580542222406,1.759872430386584e-12,-3.802342889885875,Shropshire,Shropshire,Clun
53,"Calcot Camp, Shropshire",327415,295956,-341983,6901390,-3.07208900312957,52.5565562167761,1.675805029408612e-12,-3.8023825243285816,Shropshire,Shropshire,Chirbury with Brompton
54,"Callow Hill Camp, Shropshire",338443,304828,-324062,6916255,-2.91110065713292,52.6376661808484,1.5115828915978305e-12,-3.8024643867104797,Shropshire,Shropshire,Minsterley
55,"Castle Idris, Shropshire (Garn Bank)",324024,282426,-347206,6879069,-3.11900512233549,52.4344797468434,1.7720782058446294e-12,-3.8023372521097225,Shropshire,Shropshire,Clun
56,"Castle Ring, Gorsty Bank, Shropshire (Gorsty Bank)",331506,300620,-335375,6909167,-3.0127219484215,52.5990099761795,1.6109221187074882e-12,-3.802414128659382,Shropshire,Shropshire,Worthen with Shelve
57,"Castle Ring, Horderley, Shropshire",340125,286878,-320934,6886746,-2.88300278426528,52.4765029631698,1.606238885543452e-12,-3.8024164459233667,Shropshire,Shropshire,Edgton
58,"Castle Hill, Oak Hill, Shropshire (Oak Hill)",337196,301092,-326034,6910071,-2.92881438440519,52.6039411139019,1.5518435124844126e-12,-3.8024437327556573,Shropshire,Shropshire,Worthen with Shelve
59,"Castle Ring, Stitt Hill, Shropshire",340479,297794,-320572,6904707,-2.87974976633088,52.5746658437774,1.5377606523930625e-12,-3.8024509119419365,Shropshire,Shropshire,Ratlinghope
60,"Caus Castle, Shropshire",333700,307800,-331930,6921054,-2.98177750126806,52.6638205838787,1.5376039544414666e-12,-3.802450992095859,Shropshire,Shropshire,Westbury
61,"Caynham Camp, Shropshire",354509,273723,-297161,6865415,-2.66944645795988,52.3596355030808,1.4908633896330592e-12,-3.8024751743894254,Shropshire,Shropshire,Caynham
62,"Chesterton Walls, Shropshire",378662,296702,-257845,6903430,-2.31625905007806,52.5676942878918,1.0387564294028575e-12,-3.8027441106817395,Shropshire,Shropshire,Worfield
63,"Clee Burf, Shropshire",359329,284338,-289427,6882898,-2.59996516636499,52.4554415540087,1.3727482416498294e-12,-3.802538878249931,Shropshire,Shropshire,Wheathill
64,"Coed y Gaer, Oswestry, Shropshire",323243,328983,-349692,6955822,-3.1413333613733,52.8528306760212,1.422996799061048e-12,-3.8025113020031287,Shropshire,Shropshire,Oswestry Rural
65,"Colstey Bank, Shropshire",330475,284096,-336684,6881968,-3.02447976002009,52.450350697019,1.7160737284755408e-12,-3.802363360683668,Shropshire,Shropshire,Clun
66,"Earl's Hill, Shropshire (Earl's Hill Camp)",340889,304836,-320039,6916318,-2.87496113680875,52.6380104891813,1.4840177768703177e-12,-3.8024787628660848,Shropshire,Shropshire,Pontesbury
67,"Ebury Hill, Shropshire (Ebury)",354615,316446,-297640,6935729,-2.67374661596983,52.7436992082292,1.2200425880445318e-12,-3.8026275301319834,Shropshire,Shropshire,Uffington
68,"Fron Camp, Shropshire (The Vron)",324989,282677,-345633,6879506,-3.10486980165817,52.4368693149162,1.7645735550763562e-12,-3.8023407150609705,Shropshire,Shropshire,Clun
69,"Haughmond Hill Camp, Shropshire (Haughmond Castle; Castle Earthwork)",353732,313785,-299054,6931318,-2.68644985589595,52.7197041631399,1.2528334751204293e-12,-3.802607831262752,Shropshire,Shropshire,Uffington
70,"Knowle, Shropshire",359862,273883,-288414,6865754,-2.59086463066564,52.3614929899905,1.4197907304503207e-12,-3.8025130398521174,Shropshire,Shropshire,Hope Bagot
71,"Llanymynech Hill, Powys",326479,322138,-344171,6944572,-3.09174368160869,52.7917600600702,1.4716214087412973e-12,-3.8024852922324244,Powys,Montgomeryshire,Carreghofa
73,"Nordy Bank, Shropshire",357581,284711,-292295,6883486,-2.62573512164917,52.4586614248432,1.394642947297274e-12,-3.8025267725418614,Shropshire,Shropshire,Clee St Margaret
74,"Norton Camp, Shropshire",344754,281945,-313257,6878735,-2.81403789100809,52.4326478860395,1.5766914369324948e-12,-3.8024311820172483,Shropshire,Shropshire,Culmington
75,"Old Oswestry, Shropshire",329569,331017,-339285,6959352,-3.04784725911181,52.8719781260674,1.360670237589793e-12,-3.802545617274195,Shropshire,Shropshire,Selattyn and Gobowen
76,"Nesscliffe Hill Camp, Shropshire (Oliver's Point)",338660,319796,-324017,6940978,-2.91069106039764,52.7722331639846,1.3866071802226743e-12,-3.802531199179833,Shropshire,Shropshire,Great Ness
77,"Pave Lane, Shropshire",375639,316456,-262973,6935996,-2.36232401555228,52.7451492138032,9.435276549378413e-13,-3.802811478739189,Shropshire,Shropshire,Chetwynd Aston
78,"Pontesford Hill Camp, Shropshire (Pontesbury)",340869,305575,-320087,6917537,-2.8753892639917,52.6446510639506,1.4787824420579698e-12,-3.8024815154775187,Shropshire,Shropshire,Pontesbury
79,"Radnor Wood, Shropshire",332029,281757,-334085,6878164,-3.00114023266972,52.4295216521912,1.713046851291993e-12,-3.802364789564824,Shropshire,Shropshire,Clunbury
80,"Ratlinghope Hill Camp, Shropshire (Ratlinghope Hill; Stitt Hill)",340644,297315,-320292,6903922,-2.87722936223989,52.570378200164,1.5389905222062904e-12,-3.8024502830496067,Shropshire,Shropshire,Ratlinghope
81,"Robury Ring, Shropshire",339798,293222,-321598,6897169,-2.88896645868805,52.5334933042544,1.5742579498288995e-12,-3.8024324047082945,Shropshire,Shropshire,Wentnor
82,"Roveries House, Shropshire (The Roveries (Lower))",332295,292711,-333898,6896167,-2.99945743212272,52.5280177997599,1.6544561537056756e-12,-3.802392822165742,Shropshire,Shropshire,Lydham
83,"Roveries Hill Camp, Shropshire (The Roveries (Upper))",332538,292487,-333494,6895804,-2.99583050033277,52.5260345169265,1.653525712004725e-12,-3.8023932731958117,Shropshire,Shropshire,Lydham
84,"The Berth, Shropshire",343022,323686,-316895,6947502,-2.84671984521104,52.807677801886,1.3036597812652336e-12,-3.8025780358165706,Shropshire,Shropshire,Baschurch
85,"The Burgs, Shropshire (The Buries; Bayston Hill)",348947,308755,-306853,6922934,-2.756503696822,52.6740581409183,1.3550649106481131e-12,-3.8025487598038894,Shropshire,Shropshire,Bayston Hill
86,"The Ditches, Mogg Forest, Shropshire (Larden Ditches; Mogg Ditches; The Rings; Wynbury Castle; Larden Castle)",356265,294244,-294591,6899138,-2.64635750757317,52.5442546740346,1.356255360009971e-12,-3.802548091598608,Shropshire,Shropshire,Rushbury
87,"Upper Knuck Camp, Shropshire (The Knuck)",325626,286200,-344677,6885306,-3.09628736301069,52.4686231009814,1.7437886795566918e-12,-3.8023503630650457,Shropshire,Shropshire,Mainstone
88,"The Lawley (North End), Shropshire (The Lawley (Lower))",350290,298634,-304472,6906271,-2.73511677092938,52.5832037992466,1.4093997564220032e-12,-3.8025186922361525,Shropshire,Shropshire,Longnor
89,"The Lawley (Summit), Shropshire (The Lawley (Upper))",349432,297411,-305861,6904243,-2.74759185134974,52.5721306969456,1.4288737689185529e-12,-3.8025081238734586,Shropshire,Shropshire,Longnor
90,"The Wrekin, Shropshire",363048,308337,-283633,6922454,-2.54791986721106,52.6714480551404,1.165982958352557e-12,-3.802660875804344,Shropshire,Shropshire,Little Wenlock
91,"Titterstone Clee, Shropshire",359516,277973,-289034,6872454,-2.59644057873706,52.3982358030743,1.4042110355999531e-12,-3.8025215262550693,Shropshire,Shropshire,Bitterley
92,"Wall Camp, Kynnersley, Shropshire (The Wall; Kinnersley Wall)",368097,317789,-275424,6938127,-2.47417491615622,52.7567382390836,1.0293162612695512e-12,-3.802750580448132,Shropshire,Shropshire,Kynnersley
93,"Walton Camp, Shropshire",330055,305729,-337880,6917554,-3.03522438606426,52.6447469309487,1.5863299064576677e-12,-3.802426352849722,Shropshire,Shropshire,Worthen with Shelve
94,"Wart Hill, Shropshire",340071,284775,-320981,6883291,-2.88341917675567,52.4575929629528,1.617591772688794e-12,-3.8024108370719905,Shropshire,Shropshire,Hopesay
95,"Grimsbury Castle, West Berkshire (Grimsbury Camp)",451094,172216,-140950,6700673,-1.26617882003926,51.4465830741656,9.605049693718062e-13,-3.802799112344061,West Berkshire,Berkshire,Hermitage
96,"Bussock Camp, West Berkshire (Bussock Wood Camp)",446720,172433,-147953,6701088,-1.32908602389098,51.4489111659389,9.92199937698723e-13,-3.8027764502549837,West Berkshire,Berkshire,Chieveley
97,"Walbury Camp, West Berkshire",437408,161800,-162994,6684152,-1.46420099785299,51.3539957238228,1.0385666731240168e-12,-3.802744240302385,West Berkshire,Berkshire,Combe
98,"Ramsbury, West Berkshire (Ramsbury Corner)",452469,169532,-138792,6696341,-1.24679173441195,51.4223258048981,9.467378330132651e-13,-3.8028091279182434,West Berkshire,Berkshire,Thatcham
99,"Membury Camp, Wiltshire (Membury Fort)",430214,175285,-174367,6705870,-1.56636238323987,51.4756733248911,1.1107363440253262e-12,-3.8026961529128993,Wiltshire,Wiltshire,Ramsbury
100,"Eston Nab, North Yorkshire",456759,518267,-125108,7276260,-1.12386761211774,54.5564812239929,2.604387606754377e-13,-3.80356703939601,North Yorkshire,Yorkshire,Guisborough
101,"Perborough Castle, West Berkshire (Compton Castle)",452052,177966,-139322,6709896,-1.25154920137686,51.4981938089108,9.594352666609157e-13,-3.802799886745358,West Berkshire,Berkshire,Compton
102,"Caesar's Camp, Bracknell Forest",486376,165774,-84620,6689573,-0.760150174933369,51.3843954580731,7.155842968954168e-13,-3.802995998004192,Bracknell Forest,Berkshire,Easthampstead
103,"Allen Knott, Cumbria",341445,501054,-323217,7246580,-2.90350796609581,54.4015783937987,7.225508508781013e-13,-3.8029897572766727,Cumbria,Westmorland,Windermere
104,"Barrock Fell, Cumbria (Barrock Tell)",346450,547560,-315583,7327016,-2.83492887769361,54.8200323052187,1.6535239402948442e-12,-3.802393274054824,Cumbria,Cumberland,Hesket
105,"Humbledon Hill, Tyne and Wear (Homeldon; Hamdon; Hamylden; Hamildon; Humbledon Bank)",437980,555220,-156895,7340606,-1.40941143623592,54.890305191072,6.850454220917399e-13,-3.803023895982826,Tyne and Wear,County Durham,Sunderland
106,"Carrock Fell, Cumbria",334275,533641,-336321,7302609,-3.0212266549491,54.6935153829141,1.3294956026870724e-12,-3.802563217596904,Cumbria,Cumberland,Caldbeck
107,"Castle Crag, Bampton, Cumbria",346925,512775,-314055,7266864,-2.82120776121066,54.5075080041564,8.834706492276945e-13,-3.802856586739567,Cumbria,Westmorland,Bampton
108,"Castle Crag, Borrowdale, Cumbria",324930,515980,-351954,7271854,-3.16165248863379,54.5335220409577,9.93119352669304e-13,-3.8027758008831856,Cumbria,Cumberland,Borrowdale
109,"Castle How, Peel Wyke, Cumbria",320173,530827,-360585,7297348,-3.23919391681036,54.6661917609058,1.2902753161443245e-12,-3.8025857978061195,Cumbria,Cumberland,Wythop
110,"Castle Howe, Little Langdale, Cumbria",329726,503282,-343368,7250126,-3.08452688521235,54.4201130849922,7.795483500632735e-13,-3.8029402952666387,Cumbria,Cumberland,Lakes
111,"Castlesteads, The Helm, Cumbria (Castle Steeds)",353078,488749,-303055,7225692,-2.72238517657961,54.2922058829881,5.643323349012576e-13,-3.8031440910065633,Cumbria,Westmorland,Natland and Stainton
112,"Castlesteads, Lowther Park, Cumbria",351857,525187,-305804,7288374,-2.74708123995908,54.6195383241299,1.1012032778445603e-12,-3.8027023703153513,Cumbria,Westmorland,Yanwath and Eamont Bridge
113,"Shoulthwaite Gill, Cumbria (Castle Crag, Shoulthwaite)",329989,518844,-343328,7276932,-3.08416833703972,54.5599817059899,1.0332329259449356e-12,-3.8027478908962102,Cumbria,Cumberland,St John's Castlerigg and Wythburn
114,"Castle Head, Cumbria (Atterpile Castle)",342120,479750,-321599,7210069,-2.88897638507194,54.2102118088491,5.076794097949073e-13,-3.803207152721327,Cumbria,Westmorland,Grange-over -Sands
115,"Maiden Castle, County Durham",428297,541697,-173846,7317244,-1.56168333111443,54.7694230188183,7.267546685387157e-13,-3.802986012874801,County Durham,County Durham,Durham
116,"Skelmore Heads, Cumbria (Great Urswick Fort)",327438,475172,-346532,7201886,-3.11294828183799,54.167203690021,4.978476553610564e-13,-3.8032186190152033,Cumbria,Lancashire,Urswick
117,"Swarthy Hill, Cumbria",306920,540289,-383789,7313289,-3.44763239092349,54.7489221678697,1.4828462789261194e-12,-3.8024793781886665,Cumbria,Cumberland,Crosscanonby
118,"Shackleton Beacon Hill, County Durham",422943,523298,-183270,7285454,-1.64634216698264,54.6043500358473,6.086487957132519e-13,-3.803097941958532,County Durham,County Durham,Heighington
119,"Tilberthwaite, Cumbria",330810,501050,-341451,7246318,-3.06730314940167,54.4002059061146,7.463289213828517e-13,-3.80296878510284,Cumbria,Cumberland,Coniston
120,"Dunmallard, Cumbria (Dunmallet, Dunmalloght,  Dunmallock)",346770,524638,-314561,7287327,-2.82575251699776,54.6140934040601,1.1037649061577406e-12,-3.802700695752035,Cumbria,Westmorland,Dacre
121,"Scarside Plantation, Cumbria",353006,519291,-303718,7278215,-2.72834285834114,54.5666640367445,9.823836339299826e-13,-3.802783411199098,Cumbria,Westmorland,Bampton
122,"Kemp's Walk, Meikle Larbrax, Dumfries & Galloway (Kemp's Wark)",197540,559830,-574249,7340954,-5.15856672275307,54.8921052807877,7.269305676599381e-13,-3.802985856547295,Dumfries & Galloway,Wigtownshire,Leswalt
123,"Dunskey Golf Course, Dumfries & Galloway (Portpatrick Post Office Radio Station; Fort Cottage)",199440,554440,-570539,7331746,-5.12524172931695,54.8445060648793,7.258752753678974e-13,-3.8029867948398812,Dumfries & Galloway,Wigtownshire,Portpatrick
124,"Dounan Nose, Dally, Dumfries & Galloway",196730,568740,-576354,7356380,-5.17747791507887,54.971722778029,7.475344277867527e-13,-3.802967735047281,Dumfries & Galloway,Wigtownshire,Kirkcolm
125,"Croglam Castle, Cumbria",376854,507700,-262558,7258556,-2.35859760342943,54.464154832143,7.286381417575049e-13,-3.8029843404158608,Cumbria,Westmorland,Kirkby Stephen
127,"High Auchneel, Dumfries & Galloway",196090,565370,-577199,7350467,-5.18506552434641,54.9412239870284,7.320192051966614e-13,-3.8029813461274653,Dumfries & Galloway,Wigtownshire,Leswalt
128,"Portobello, Dumfries & Galloway (Mains of Cairnbrock)",196090,566410,-577281,7352276,-5.18580407156229,54.9505554141326,7.352216722772e-13,-3.8029785193925263,Dumfries & Galloway,Wigtownshire,Kirkcolm
129,"Mare Rock, Dumfries & Galloway (High Auchneel)",195990,565100,-577351,7349990,-5.18643232093265,54.9387605247447,7.303405769838891e-13,-3.802982831452502,Dumfries & Galloway,Wigtownshire,Leswalt
130,"Juniper Face, Dumfries & Galloway (High Auchneel)",196010,565000,-577308,7349818,-5.1860496188587,54.9378714478521,7.302005964875367e-13,-3.8029829554271286,Dumfries & Galloway,Wigtownshire,Leswalt
131,"Mare Rock, Dumfries & Galloway (High Auchneel)",196070,565070,-577210,7349944,-5.18516425189108,54.9385240518993,7.309207228409146e-13,-3.8029823178292643,Dumfries & Galloway,Wigtownshire,Leswalt
132,"Fort Point, Larbrax Moor, Dumfries & Galloway (Salt Pans Bay, Galdenoch)",196390,561570,-576379,7343886,-5.17769884763815,54.907250576769,7.225858430912181e-13,-3.8029897260423935,Dumfries & Galloway,Wigtownshire,Leswalt
133,"Dunskirloch, Dumfries & Galloway",198230,572730,-574063,7363445,-5.15689265472896,55.0081335098127,7.710334350166652e-13,-3.802947511238131,Dumfries & Galloway,Wigtownshire,Kirkcolm
134,"Cassington Ring, Oxfordshire (Cassington Mill Big Ring)",444890,210050,-150349,6761752,-1.3506093841123,51.7872693411152,9.775469978461484e-13,-3.802786859829174,Oxfordshire,Oxfordshire,Cassington
135,"Tadmarton Camp, Oxfordshire (Tadmarton Heath Camp)",438795,235665,-159865,6803384,-1.43609257966226,52.0180182610738,9.221817637785171e-13,-3.8028272622315162,Oxfordshire,Oxfordshire,Tadmarton
136,"Madmarston Hill Camp, Oxfordshire (Madmarston Camp)",438750,238850,-159898,6808566,-1.43638837871563,52.0466558060249,9.075245389296855e-13,-3.802838256673131,Oxfordshire,Oxfordshire,Swalcliffe
137,"Alfred's Castle, Oxfordshire",427735,182235,-178279,6717069,-1.60151135196148,51.5382902542229,1.131041119343885e-12,-3.802683040265035,Oxfordshire,Berkshire,Ashbury
138,"Castle Grove Camp, Oxfordshire (Wyfold Castle)",468300,181000,-113204,6714466,-1.01692660641276,51.5237434671079,8.489746304425168e-13,-3.8028835274725963,Oxfordshire,Oxfordshire,Checkendon
139,"Bozedown Camp, Oxfordshire (Binditch)",464350,178250,-119597,6710127,-1.07435528897717,51.4994829501012,8.73510241131189e-13,-3.8028642847981797,Oxfordshire,Berkshire,Whitchurch-on-Thames
140,"Blewburton Hill, Oxfordshire",454750,186250,-134852,6723179,-1.21139969864242,51.5724187037372,9.428435557183598e-13,-3.8028119804685927,Oxfordshire,Berkshire,Aston Upthorpe
141,"Little Coxwell Camp, Oxfordshire (Lower Coxwell Camp; Onetree Hill)",428850,192850,-176393,6734159,-1.58456558364583,51.6336770039068,1.118501044992903e-12,-3.8026911178318907,Oxfordshire,Berkshire,Little Coxwell
142,"Sinodun Hill Camp, Oxfordshire (Castle Hill)",456950,192550,-131205,6733292,-1.17863713321916,51.628841727063,9.25138781285192e-13,-3.8028250598014037,Oxfordshire,Berkshire,Little Wittenham
143,"Cherbury Camp, Oxfordshire",437450,196350,-162519,6739714,-1.45993743810602,51.6646402472627,1.0556842440517483e-12,-3.802732617043635,Oxfordshire,Berkshire,Charney Bassett
144,"Badbury Camp, Oxfordshire",426150,194650,-180721,6737085,-1.62344233262447,51.6499927608388,1.1343609448571844e-12,-3.8026809128919576,Oxfordshire,Berkshire,Great Coxwell
145,"Burroway, Oxfordshire",430885,200345,-173046,6746234,-1.55450272873918,51.700957749044,1.093682561719535e-12,-3.802707303336426,Oxfordshire,Oxfordshire,Clanfield
146,"Uffington Castle, Oxfordshire (Woolstone Castle)",429945,186325,-174694,6723633,-1.5693000610685,51.5749521629459,1.1158142641680027e-12,-3.8026928571719507,Oxfordshire,Berkshire,Uffington
148,"Chastleton Camp, Oxfordshire (Chastleton Barrow)",425848,228224,-180929,6791428,-1.62531343712301,51.9518703379817,1.036967222855487e-12,-3.8027453335655164,Oxfordshire,Gloucestershire,Chastleton
149,"Bladon Camp, Oxfordshire (Round Castle)",445685,213805,-149011,6767818,-1.33859054005847,51.8209647577389,9.619961416274482e-13,-3.802798033884044,Oxfordshire,Oxfordshire,Bladon
151,"Ilbury Camp, Oxfordshire",443779,230642,-151852,6795153,-1.36410885477366,51.9724898268177,9.139856358812842e-13,-3.8028333941652477,Oxfordshire,Oxfordshire,Deddington
152,"The Roundabout, Oxfordshire (Lyneham Camp; Merriscourt)",429950,221450,-174350,6780398,-1.56621508827936,51.8907619918777,1.03848717200757e-12,-3.8027442946140044,Oxfordshire,Oxfordshire,Lyneham
153,"Knollbury Camp, Oxfordshire (Knoll Bury Roman Camp; Knollberry, Banks)",431635,223005,-171609,6782903,-1.54158876740362,51.9046498119227,1.0215379496173512e-12,-3.80275594422201,Oxfordshire,Oxfordshire,Chadlington
154,"Hardwell Camp, Oxfordshire",428755,186745,-176601,6724321,-1.5864371938959,51.5787902627501,1.1236510744189258e-12,-3.8026877924517337,Oxfordshire,Berkshire,Compton Beauchamp
155,"Segsbury Camp, Oxfordshire (Letcombe Castle)",438500,184479,-160974,6720568,-1.44605725244413,51.5578366312694,1.0574701964542698e-12,-3.8027314123613905,Oxfordshire,Berkshire,Letcombe Regis
156,"Little Tew, Oxfordshire",438285,228385,-160783,6791560,-1.44433463586878,51.9526029117692,9.573512600411746e-13,-3.8028013972723698,Oxfordshire,Oxfordshire,Little Tew
157,"Hill Farm, Bruern, Oxfordshire",424455,217565,-183269,6774148,-1.64633571168899,51.8560995611372,1.0887611120639629e-12,-3.802710544987886,Oxfordshire,Gloucestershire,Bruern
158,"Eynsham Park Camp, Oxfordshire",439350,211550,-159271,6764254,-1.43075313464894,51.8011716171287,1.0101984730408453e-12,-3.80276381791112,Oxfordshire,Oxfordshire,North Leigh
159,"Harborough Bank, Oxfordshire (Herborowe Bank)",449365,224375,-142900,6784894,-1.2836949341187,51.9156807270085,9.041437851624306e-13,-3.802840811146427,Oxfordshire,Oxfordshire,Lower Heyford
161,"Wigginton Heath, Oxfordshire",438055,235255,-161071,6802727,-1.44692099606452,52.0143832997823,9.285568296508204e-13,-3.802822520445791,Oxfordshire,Oxfordshire,Hook Norton
162,"Castle Bank, Oxfordshire",440620,240880,-156836,6811846,-1.40888145537114,52.0647725871506,8.867587480995134e-13,-3.8028540595308784,Oxfordshire,Oxfordshire,North Newington
164,"Horspath, Oxfordshire",459150,204350,-127445,6752297,-1.14486055040147,51.7347014742441,8.961428327946163e-13,-3.802846884783182,Oxfordshire,Oxfordshire,Horspath
165,"Silsbury Hill, Oxfordshire",458600,185134,-128690,6721313,-1.15603844558527,51.5619988399609,9.161155606449873e-13,-3.8028317967759366,Oxfordshire,Berkshire,Cholsey
166,"Cholsey Hill, Oxfordshire",457300,187900,-130727,6725792,-1.1743398668861,51.5870002017645,9.248703944476898e-13,-3.8028252594855445,Oxfordshire,Berkshire,Cholsey
167,"Rams Hill, Oxfordshire",431430,186300,-172309,6723579,-1.5478741968016,51.5746467928259,1.105780105379431e-12,-3.802699380407536,Oxfordshire,Berkshire,Uffington
168,"Bury Hill, Oxfordshire",423182,196878,-185480,6740704,-1.66619373012087,51.6701549757252,1.1507787819091201e-12,-3.802670459157122,Oxfordshire,Berkshire,Buscot
169,"Tilbury Farm, Oxfordshire",447910,207020,-145522,6756806,-1.30724644231657,51.7597779592043,9.64824870448467e-13,-3.802795991445152,Oxfordshire,Berkshire,Wytham
170,"Hill Wood, Oxfordshire",441402,221418,-155827,6780214,-1.3998173742043,51.8897432879057,9.648332722035622e-13,-3.802795985385377,Oxfordshire,Oxfordshire,Kiddington with Asterleigh
171,"Idbury Camp, Oxfordshire",422885,219555,-185792,6777385,-1.66900025301971,51.8740578431419,1.0917283817900105e-12,-3.8027085892222607,Oxfordshire,Gloucestershire,Idbury
172,"Dyke Hills, Oxfordshire (Dike Hills)",457350,193650,-130542,6735058,-1.17267893223141,51.6386907200442,9.216098929508077e-13,-3.8028276887699324,Oxfordshire,Berkshire,Dorchester
173,"Abingdon, The Vineyard, Oxfordshire",449950,197250,-142388,6740992,-1.27908927525028,51.6717618692349,9.683985736499705e-13,-3.8027934174112725,Oxfordshire,Berkshire,Abingdon
174,"Cookham Dean, Berkshire",486803,184330,-83430,6719369,-0.749463281815897,51.551140724938,7.381763305631402e-13,-3.8029759194313946,Berkshire,Berkshire,Cookham
175,"Muldaddie, Dumfries & Galloway",209140,539770,-552673,7307065,-4.96474276841909,54.716640776783,7.601521514525226e-13,-3.8029568186035214,Dumfries & Galloway,Wigtownshire,Kirkmaiden
176,"Crammag Head, Dumfries & Galloway (Crammag Fort, Crammock, Crummag Head, Crammog (Fort, Slock Mill))",208910,534040,-552652,7297144,-4.96455433061858,54.6651281390038,7.342180733351661e-13,-3.802979404265128,Dumfries & Galloway,Wigtownshire,Kirkmaiden
177,"Dunman, Dumfries & Galloway",209780,533500,-551113,7296274,-4.95073247705962,54.660610807808,7.396567620610973e-13,-3.802974619605057,Dumfries & Galloway,Wigtownshire,Kirkmaiden
178,"Kenmuir Graves, Island Buoy, Dumfries & Galloway (Float Bay)",206610,546910,-557567,7319237,-5.00871367293114,54.7797512729291,7.644127102650503e-13,-3.8029531626839415,Dumfries & Galloway,Wigtownshire,Stoneykirk
179,"Dove Cave Head, Dumfries & Galloway (Little Float)",205980,547310,-558686,7319883,-5.01876257175403,54.7830977882511,7.601273721664297e-13,-3.8029568399103764,Dumfries & Galloway,Wigtownshire,Stoneykirk
180,"Grennan, Grennan Point, Dumfries & Galloway",207600,543770,-555625,7313873,-4.9912618288187,54.7519520902377,7.617833058930554e-13,-3.802955417154819,Dumfries & Galloway,Wigtownshire,Stoneykirk
181,"Duniehinnie, Mull of Logan, Dumfries & Galloway (Duniehinnie; Mullhill)",207550,542570,-555623,7311792,-4.99124312140291,54.741163585119,7.56742199201416e-13,-3.802959755529777,Dumfries & Galloway,Wigtownshire,Kirkmaiden
182,"Clanghie Bay, Dumfries & Galloway (Clanghie Point)",208750,541560,-553477,7310133,-4.97196487026552,54.7325572910397,7.637175796195609e-13,-3.802953758137517,Dumfries & Galloway,Wigtownshire,Kirkmaiden
183,"Clanghie Point, Dumfries & Galloway (Mullhill)",208550,541580,-553823,7310153,-4.97507972910583,54.732660660012,7.6198560383727e-13,-3.8029552434995297,Dumfries & Galloway,Wigtownshire,Kirkmaiden
184,"Kildrochet House, Dumfries & Galloway (Camp's Graves; Kildrochat House)",208210,556496,-555509,7335979,-4.99022647913125,54.8663937331673,8.108828953217723e-13,-3.8029142309245296,Dumfries & Galloway,Wigtownshire,Stoneykirk
185,"Dunbae Glen, Dumfries & Galloway",205740,558150,-559912,7338666,-5.02977153605369,54.8802836451768,7.93857486806508e-13,-3.8029282987724526,Dumfries & Galloway,Wigtownshire,Inch
186,"Cairn Pat, Dumfries & Galloway (Cairn Piot)",204420,556320,-562060,7335390,-5.04907536582051,54.8633470291772,7.764626981520318e-13,-3.802942903460654,Dumfries & Galloway,Wigtownshire,Portpatrick
187,"Kirklauchline, Dumfries & Galloway",203560,550580,-563116,7325368,-5.05855396020215,54.8115007568663,7.497152855959502e-13,-3.8029658385802914,Dumfries & Galloway,Wigtownshire,Stoneykirk
188,"The Dounan, Dumfries & Galloway",201900,552300,-566118,7328224,-5.08552308015234,54.8262820660503,7.406494643193359e-13,-3.8029737490813114,Dumfries & Galloway,Wigtownshire,Stoneykirk
189,"Tor of Craigoch, Dumfries & Galloway",200850,564640,-568884,7349570,-5.110367483233,54.9365963947863,7.702397598400301e-13,-3.8029481868268378,Dumfries & Galloway,Wigtownshire,Leswalt
190,"Kemp's Graves, Glenhead of Aldouran, Dumfries & Galloway",200780,563520,-568919,7347618,-5.11068203102467,54.9265184819335,7.663758785832857e-13,-3.8029514831736626,Dumfries & Galloway,Wigtownshire,Leswalt
191,"Mid Dinduff, Dumfries & Galloway",202691,564052,-565645,7348690,-5.0812711877243,54.9320513909109,7.843630170077937e-13,-3.8029362407578766,Dumfries & Galloway,Wigtownshire,Kirkcolm
192,"Craigview, South Ayrshire",206630,579830,-559998,7376471,-5.03054914111984,55.0751818599309,8.534621320688975e-13,-3.8028799776769984,South Ayrshire,Ayrshire,Ballantrae
193,"Caspin, Dumfries & Galloway (West Balscalloch)",200520,573250,-570123,7364530,-5.12150296086739,55.013722629801,7.908288534360662e-13,-3.8029308245379445,Dumfries & Galloway,Wigtownshire,Kirkcolm
194,"Corseclays, South Ayrshire",209381,585141,-555605,7385951,-4.99108214869387,55.123906529833,8.827403118762834e-13,-3.802857149012349,South Ayrshire,Ayrshire,Colmonell
195,"Core Hill, Kirkmaiden, Dumfries & Galloway",212430,536860,-546786,7302271,-4.91186442107799,54.6917606492141,7.77735051724024e-13,-3.8029418270603776,Dumfries & Galloway,Wigtownshire,Kirkmaiden
196,"Clanyard Bay, Dumfries & Galloway",210309,537712,-550506,7303591,-4.94528020274833,54.6986126480421,7.623018678949805e-13,-3.802954972082279,Dumfries & Galloway,Wigtownshire,Kirkmaiden
197,"The Dunnan, Portankill, Dumfries & Galloway (Mull of Galloway Farm; The Dounnan)",214170,532290,-543461,7294500,-4.88199635685754,54.6513881179758,7.730633725904695e-13,-3.8029457856530113,Dumfries & Galloway,Wigtownshire,Kirkmaiden
198,"Carrickcamrie, West Cairngaan, Dumfries & Galloway",212980,531090,-545426,7292343,-4.89964861870314,54.6401777218461,7.572002898278566e-13,-3.802959360418574,Dumfries & Galloway,Wigtownshire,Kirkmaiden
199,"Dunorroch, West Cairngaan, Dumfries & Galloway",213060,531070,-545287,7292314,-4.89839789163813,54.6400278688278,7.578066681203205e-13,-3.802958837677585,Dumfries & Galloway,Wigtownshire,Kirkmaiden
200,"Mull Glen, West Tarbet, Dumfries & Galloway",213800,531060,-544012,7292349,-4.8869404452295,54.6402118139622,7.642137985471567e-13,-3.8029533330322685,Dumfries & Galloway,Wigtownshire,Kirkmaiden
201,"Mull of Galloway, Dumfries & Galloway",214381,530735,-542988,7291829,-4.87774350772373,54.6375088971486,7.677656389528738e-13,-3.8029502961360895,Dumfries & Galloway,Wigtownshire,Kirkmaiden
202,"Cardryne, Dumfries & Galloway",211370,531730,-548246,7293332,-4.9249745313525,54.6453223458414,7.459462758457289e-13,-3.8029691186674093,Dumfries & Galloway,Wigtownshire,Kirkmaiden
203,"Mote Hill, Glenluce, Dumfries & Galloway (Glenluce)",219360,557330,-536252,7338230,-4.81723705236714,54.8780303232087,9.137910762425502e-13,-3.8028335402167595,Dumfries & Galloway,Wigtownshire,Old Luce
204,"Round Dounan, Dumfries & Galloway (Dunragit House)",214830,557950,-544146,7338986,-4.88814771269939,54.8819378798345,8.745186861733703e-13,-3.802863502470259,Dumfries & Galloway,Wigtownshire,Old Luce
205,"East Galdenoch, Dumfries & Galloway",210231,555321,-551923,7334088,-4.9580072156901,54.8566193702114,8.254188222268623e-13,-3.8029023914100213,Dumfries & Galloway,Wigtownshire,Stoneykirk
206,"Barsolus, Dumfries & Galloway",210706,556516,-551188,7336198,-4.95140173182775,54.8675239410798,8.333077634793047e-13,-3.8028960300985797,Dumfries & Galloway,Wigtownshire,Inch
207,"Cruise Back Fell, Dumfries & Galloway",217940,562190,-539055,7346575,-4.84241405758004,54.9211359378499,9.136932501605562e-13,-3.8028336136612437,Dumfries & Galloway,Wigtownshire,New Luce
208,"Bargain Hill, South Ayrshire",219130,588430,-538842,7392412,-4.84049734830945,55.1570803198213,9.608860946851995e-13,-3.80279883658557,South Ayrshire,Ayrshire,Colmonell
209,"Duniewick, South Ayrshire",211600,585150,-551737,7386132,-4.95633871003421,55.124835959948,8.994896027666507e-13,-3.802844339358365,South Ayrshire,Ayrshire,Colmonell
210,"Doon of May, Dumfries & Galloway",229500,551510,-518297,7328816,-4.65593842198313,54.8293456749469,9.888597803521396e-13,-3.8027788131079414,Dumfries & Galloway,Wigtownshire,Mochrum
211,"Garliachen, Laigh Sinniness, Dumfries & Galloway",221570,552190,-532069,7329462,-4.77965760091447,54.8326874197904,9.182455840093884e-13,-3.802830202048448,Dumfries & Galloway,Wigtownshire,Old Luce
212,"Bennan of Garvilland, Dumfries & Galloway",221540,562757,-532849,7347813,-4.78666588665529,54.9275251662351,9.47827161131323e-13,-3.8028083315361467,Dumfries & Galloway,Wigtownshire,New Luce
213,"Maxwellston Hill, South Ayrshire",225950,598950,-527662,7411310,-4.7400701848331,55.2539512189322,1.0163917733021673e-12,-3.8027595094978537,South Ayrshire,Ayrshire,Dailly
214,"Enoch, South Ayrshire",220714,599138,-536834,7411273,-4.82246390793261,55.2537626469093,9.73898641872117e-13,-3.802789469521234,South Ayrshire,Ayrshire,Girvan
215,"Back Bay, Dumfries & Galloway",236960,539320,-504620,7308173,-4.53307639663127,54.7223895558769,1.0009234102243885e-12,-3.802770306739989,Dumfries & Galloway,Wigtownshire,Glasserton
216,"Laggan Camp, Dumfries & Galloway",239760,537250,-499658,7304765,-4.48850714137646,54.7047046190303,1.0125421645851447e-12,-3.8027621852212894,Dumfries & Galloway,Wigtownshire,Glasserton
217,"Killantrae Bridge, Dumfries & Galloway (Killentrae Bridge)",233270,545250,-511369,7318207,-4.59370966985146,54.7744162652155,9.980476291653163e-13,-3.802772327635122,Dumfries & Galloway,Wigtownshire,Mochrum
218,"Fell of Barhullion, Dumfries & Galloway",237450,541880,-503933,7312635,-4.52690702238147,54.7455318677702,1.0187718468245002e-12,-3.8027578589305087,Dumfries & Galloway,Wigtownshire,Glasserton
219,"Barsalloch Point, Dumfries & Galloway (Barsalloch Fort)",234720,541210,-508607,7311303,-4.5688925620807,54.7386261457727,9.91601786651036e-13,-3.802776872960133,Dumfries & Galloway,Wigtownshire,Mochrum
220,"Doon Hill, Boreland, Dumfries & Galloway",234730,558520,-509690,7341327,-4.57862343214021,54.8940306979596,1.063048851676844e-12,-3.8027276590133834,Dumfries & Galloway,Wigtownshire,Kirkcowan
221,"Doon Hill, Capenoch Croft, Dumfries & Galloway (Doon Fort)",238030,551530,-503531,7329398,-4.52329803174439,54.832356440819,1.0698882677537046e-12,-3.802723077181448,Dumfries & Galloway,Wigtownshire,Kirkinner
222,"Barnkirk Hill, Dumfries & Galloway",239430,566405,-502031,7355339,-4.50982064257102,54.9663534238847,1.135207770042943e-12,-3.8026803709738695,Dumfries & Galloway,Wigtownshire,Penninghame
223,"Drummoral, Dumfries & Galloway",246150,536250,-488570,7303419,-4.38890162466968,54.6977202309509,1.0578557374207495e-12,-3.802731152498504,Dumfries & Galloway,Wigtownshire,Whithorn
224,"Cairnhead Mote, Dumfries & Galloway",248610,538250,-484441,7307023,-4.3518036926672,54.7164246827579,1.0916922581246381e-12,-3.8027086130082552,Dumfries & Galloway,Wigtownshire,Whithorn
225,"Steinhead Mote, Dumfries & Galloway",248530,537180,-484517,7305167,-4.35248799421635,54.7067928617457,1.0834377586024114e-12,-3.802714063549311,Dumfries & Galloway,Wigtownshire,Whithorn
226,"Isle Head, Dumfries & Galloway (Isle of Whithorn)",248030,536050,-485314,7303184,-4.35965191128348,54.6964956249423,1.0713610899757518e-12,-3.802722093341973,Dumfries & Galloway,Wigtownshire,Whithorn
227,"Court Hill, High Skeog, Dumfries & Galloway",245430,539780,-490021,7309485,-4.40193714423287,54.7291950280235,1.07540807828254e-12,-3.8027193950939697,Dumfries & Galloway,Wigtownshire,Whithorn
228,"Glasserton Hill, Dumfries & Galloway",241320,537090,-496956,7304583,-4.46423318467092,54.7037624708279,1.0243446026316322e-12,-3.802754005347143,Dumfries & Galloway,Wigtownshire,Glasserton
229,"Carghidown Castle, Dumfries & Galloway",243560,535070,-492969,7301225,-4.42841937011256,54.6863269131248,1.0294325717598367e-12,-3.8027505004697586,Dumfries & Galloway,Wigtownshire,Whithorn
230,"Burrow Head, Dumfries & Galloway",245530,534150,-489516,7299751,-4.39740097364493,54.6786745588388,1.038485042087231e-12,-3.8027442960691134,Dumfries & Galloway,Wigtownshire,Whithorn
231,"Burrow Head, Dumfries & Galloway",245590,534120,-489411,7299703,-4.39645538362069,54.6784235901196,1.038736267248169e-12,-3.8027441244534796,Dumfries & Galloway,Wigtownshire,Whithorn
232,"Castle Feather, Dumfries & Galloway (Burrow Head)",244820,534230,-490746,7299848,-4.40844508183513,54.6791745969804,1.0335804529963614e-12,-3.8027476526145723,Dumfries & Galloway,Wigtownshire,Whithorn
233,"Eggerness Castle, Dumfries & Galloway",249470,547760,-483505,7323547,-4.34339486422817,54.8020749692507,1.1625173762171168e-12,-3.802663052054618,Dumfries & Galloway,Wigtownshire,Sorbie
234,"Dinnans, Dumfries & Galloway",247920,540570,-485767,7310999,-4.36371826297782,54.7370480109528,1.1018761980429783e-12,-3.802701930142481,Dumfries & Galloway,Wigtownshire,Whithorn
235,"Dinnans, Dumfries & Galloway ('Old Fort')",247860,540260,-485852,7310459,-4.36448715169077,54.7342463358965,1.0992779756665044e-12,-3.8027036307968918,Dumfries & Galloway,Wigtownshire,Whithorn
236,"Doon of Carsluith, Dumfries & Galloway",249790,554440,-483337,7335158,-4.34189220733667,54.8621512762058,1.2044225200151714e-12,-3.8026370512656507,Dumfries & Galloway,Kirkcudbrightshire,Kirkmabreck
237,"North Balfern, Dumfries & Galloway (Ring Hill)",243720,550950,-493645,7328741,-4.43448522969553,54.8289569769108,1.1232324173474975e-12,-3.8026880623590316,Dumfries & Galloway,Wigtownshire,Kirkinner
238,"Baldoon Hill, Dumfries & Galloway",242309,553252,-496227,7332650,-4.45768549931225,54.8491827901497,1.1198601271697189e-12,-3.80269023917637,Dumfries & Galloway,Wigtownshire,Kirkinner
239,"Parliament Knowe, Dumfries & Galloway",242820,566100,-496123,7355017,-4.45675245426095,54.964695922924,1.1729618359741603e-12,-3.802656507771069,Dumfries & Galloway,Kirkcudbrightshire,Minnigaff
240,"Barn Heugh, Dumfries & Galloway",259930,547410,-465386,7323526,-4.18062991021263,54.8019638821363,1.2636111931381174e-12,-3.8026014396784844,Dumfries & Galloway,Kirkcudbrightshire,Borgue
241,"Trusty's Hill, Anwoth, Dumfries & Galloway",258890,556010,-467653,7338398,-4.20099677215068,54.8788998308056,1.3174078007363974e-12,-3.8025701239185707,Dumfries & Galloway,Kirkcudbrightshire,Anwoth
242,"Boreland Wood, Dumfries & Galloway (Boreland of Girthon)",258580,550880,-467910,7329473,-4.20331121230992,54.8327453420602,1.2769888822179085e-12,-3.8025935618774396,Dumfries & Galloway,Kirkcudbrightshire,Borgue
243,"Court Knowe, High Auchenlarie, Dumfries & Galloway",253830,553080,-476260,7333028,-4.27831381644066,54.8511361518448,1.2406611480844217e-12,-3.8026150988320007,Dumfries & Galloway,Kirkcudbrightshire,Anwoth
244,"Drummore Castle, Dumfries & Galloway (Castle Hill)",268790,545700,-449967,7321023,-4.04211855617999,54.789004058103,1.3333426974310575e-12,-3.8025610292866325,Dumfries & Galloway,Kirkcudbrightshire,Kirkcudbright
245,"Doon Wood, Dumfries & Galloway",265740,548830,-455405,7326296,-4.09096915333283,54.8163062402258,1.3347892224218834e-12,-3.8025602076762137,Dumfries & Galloway,Kirkcudbrightshire,Twynholm
246,"Muncraig Heugh, Dumfries & Galloway (Doo Cave)",260280,546150,-464712,7321360,-4.17458151837036,54.7907465490352,1.2565379593397486e-12,-3.802605629811083,Dumfries & Galloway,Kirkcudbrightshire,Borgue
247,"Borness Batteries, Dumfries & Galloway",261980,544660,-461692,7318868,-4.14745288098188,54.7778365992101,1.259677450258874e-12,-3.802603767858798,Dumfries & Galloway,Kirkcudbrightshire,Borgue
248,"Manxman's Rock, Dumfries & Galloway (Fort)",261280,544980,-462920,7319385,-4.15848097490554,54.7805172399258,1.2559732022739993e-12,-3.8026059651180177,Dumfries & Galloway,Kirkcudbrightshire,Borgue
249,"Doon Hill, Dumfries & Galloway",268750,556600,-450587,7339944,-4.04769170330436,54.8868848891542,1.4409488996643537e-12,-3.8025016240414304,Dumfries & Galloway,Kirkcudbrightshire,Twynholm
250,"Arden, Dumfries & Galloway (Campbelltown Mote)",265870,553950,-455444,7335191,-4.09132452596092,54.8623217160845,1.382949401884708e-12,-3.8025332203943263,Dumfries & Galloway,Kirkcudbrightshire,Twynholm
251,"The Doon, Twynholm, Dumfries & Galloway",266030,554380,-455189,7335947,-4.08903320664044,54.8662262427493,1.388591218480283e-12,-3.802530104484167,Dumfries & Galloway,Kirkcudbrightshire,Twynholm
252,"Castle Hill, Dumfries & Galloway",268940,554420,-450147,7336165,-4.04374046981536,54.8673566150959,1.4227461640362571e-12,-3.8025114377557374,Dumfries & Galloway,Kirkcudbrightshire,Tongland
253,"Carse Mote, Dumfries & Galloway",269550,553360,-449036,7334355,-4.03376262593481,54.8579963909564,1.4194389100551969e-12,-3.802513230732404,Dumfries & Galloway,Kirkcudbrightshire,Kirkcudbright
254,"Castle Hill, Dumfries & Galloway (Cumstounend, Compstonend)",266270,552080,-454654,7331964,-4.08423059034934,54.845635095092,1.3706445674317567e-12,-3.802540048860374,Dumfries & Galloway,Kirkcudbrightshire,Twynholm
255,"Kirkchrist Mote, Dumfries & Galloway",266720,551550,-453848,7331068,-4.07698287304261,54.8409953888664,1.3706719820380188e-12,-3.802540033596728,Dumfries & Galloway,Kirkcudbrightshire,Twynholm
256,"Kirkland Fort, Dumfries & Galloway",269220,550720,-449475,7329754,-4.0377044037571,54.834200699962,1.3894725806173514e-12,-3.8025296185613393,Dumfries & Galloway,Kirkcudbrightshire,Kirkcudbright
257,"Hell's Hole, Dumfries & Galloway",268364,554179,-451133,7335717,-4.05259948806072,54.8650409510373,1.4137949397120247e-12,-3.802516297649208,Dumfries & Galloway,Kirkcudbrightshire,Twynholm
258,"Conchieton Doon, Dumfries & Galloway (Conchieton, The Doon; Doon Hill)",263480,553070,-459540,7333538,-4.12811706759771,54.8537723621256,1.3481608216651453e-12,-3.8025526436608645,Dumfries & Galloway,Kirkcudbrightshire,Borgue
259,"Auchenhay, Dumfries & Galloway",264362,552707,-457993,7332954,-4.11421790233048,54.8507523569194,1.3549986294866638e-12,-3.8025487970205587,Dumfries & Galloway,Kirkcudbrightshire,Borgue
260,"Craig Hill, Dumfries & Galloway (Lochangower)",269150,566070,-450373,7356441,-4.04577332137071,54.972037267758,1.5274310304252632e-12,-3.8024562086712623,Dumfries & Galloway,Kirkcudbrightshire,Balmaghie
261,"Edgarton Mote, Dumfries & Galloway",267330,563070,-453382,7351124,-4.07279843421092,54.9446143108819,1.477717451546398e-12,-3.802482076302652,Dumfries & Galloway,Kirkcudbrightshire,Balmaghie
262,"Giant's Dike, Dumfries & Galloway (Barstobrick Hill)",268730,560650,-450827,7346985,-4.04985098015955,54.9232516011547,1.47680894399394e-12,-3.802482554959258,Dumfries & Galloway,Kirkcudbrightshire,Tongland
263,"Stroanfreggan Craig, Dumfries & Galloway",263700,592064,-461231,7401560,-4.14330631512259,55.204000851869,1.5594712036975257e-12,-3.8024398643310637,Dumfries & Galloway,Kirkcudbrightshire,Dalry
264,"Carminnows, Dumfries & Galloway (Deugh Bridge; Carminnow; Water of Deugh)",260640,590720,-466505,7399039,-4.1906884102293,55.191078495962,1.4968099449913648e-12,-3.8024720670453784,Dumfries & Galloway,Kirkcudbrightshire,Carsphairn
265,"East Kirkcarswell, Dumfries & Galloway",275220,549720,-439035,7328314,-3.94391686102223,54.8267507201691,1.4402448411703027e-12,-3.8025020019191613,Dumfries & Galloway,Kirkcudbrightshire,Rerrick
266,"Barend Mote, Dumfries & Galloway",275180,548850,-439062,7326803,-3.9441636057729,54.8189269111733,1.4295084412659842e-12,-3.8025077812341936,Dumfries & Galloway,Kirkcudbrightshire,Rerrick
267,"Castleyards, Dumfries & Galloway",275470,545550,-438402,7321092,-3.93823361996992,54.7893601962185,1.3921295159524168e-12,-3.8025281550825056,Dumfries & Galloway,Kirkcudbrightshire,Rerrick
268,"Nether Hazelfield, Dumfries & Galloway",278589,548244,-433131,7325913,-3.89088574977719,54.8143218891362,1.4541462995668434e-12,-3.802494565876834,Dumfries & Galloway,Kirkcudbrightshire,Rerrick
269,"Castle Muir, Dumfries & Galloway (Rueberry Castle)",279760,547150,-431053,7324069,-3.87221933219663,54.8047781971929,1.4502072331121887e-12,-3.8024966675864302,Dumfries & Galloway,Kirkcudbrightshire,Rerrick
270,"Spouty Dennans, Dumfries & Galloway",276340,545630,-436901,7321272,-3.92474588669604,54.7902940217527,1.4007081052036334e-12,-3.8025234438830586,Dumfries & Galloway,Kirkcudbrightshire,Rerrick
271,"Spouty Dennans, Dumfries & Galloway",276450,545700,-436714,7321399,-3.92306602992823,54.7909498479252,1.4025467833775803e-12,-3.8025224368853277,Dumfries & Galloway,Kirkcudbrightshire,Rerrick
272,"Castlecreavie, Dumfries & Galloway",272540,548940,-443638,7326830,-3.98526386384446,54.8190704288963,1.4046232863418211e-12,-3.8025213008064576,Dumfries & Galloway,Kirkcudbrightshire,Rerrick
273,"High Fort, North Milton, Dumfries & Galloway (High Fort of North Milton)",270590,548170,-446975,7325398,-4.01524782960118,54.811655050884,1.376891735990961e-12,-3.8025365764235493,Dumfries & Galloway,Kirkcudbrightshire,Kirkcudbright
274,"Doon Hill, Balig, Dumfries & Galloway",271910,546940,-444630,7323330,-3.99417721399483,54.8009473799535,1.3760974414384992e-12,-3.8025370172802524,Dumfries & Galloway,Kirkcudbrightshire,Rerrick
275,"Glennap Fort, Dumfries & Galloway",272720,545100,-443138,7320179,-3.98077636667359,54.7846281688818,1.362484244134448e-12,-3.802544602327037,Dumfries & Galloway,Kirkcudbrightshire,Rerrick
276,"Craigraploch, Dumfries & Galloway (Wall Hill)",272470,544000,-443517,7318259,-3.98417757788376,54.7746852612045,1.3474848636864488e-12,-3.802553024704743,Dumfries & Galloway,Kirkcudbrightshire,Rerrick
277,"Castle Hill, Dumfries & Galloway (Castlegower)",279250,558910,-432484,7344473,-3.8850703395971,54.9102803522113,1.5945089799961388e-12,-3.8024222718217002,Dumfries & Galloway,Kirkcudbrightshire,Buittle
278,"Ingleston, Dumfries & Galloway",277210,557670,-435965,7342220,-3.91634287215356,54.8986457531467,1.5550969006947707e-12,-3.802442081071817,Dumfries & Galloway,Kirkcudbrightshire,Kelton
279,"Dunguile Hill, Dumfries & Galloway",277340,557160,-435716,7341340,-3.91409956868334,54.8940971451307,1.5507670998860557e-12,-3.8024442797920375,Dumfries & Galloway,Kirkcudbrightshire,Kelton
280,"Kerbers, Dumfries & Galloway",277740,557010,-435015,7341098,-3.90780273427451,54.8928479808308,1.553770323386925e-12,-3.8024427542422217,Dumfries & Galloway,Kirkcudbrightshire,Kelton
281,"Netherthird, Dumfries & Galloway",271080,555480,-446490,7338115,-4.01089137866392,54.8774327859457,1.4581729233475935e-12,-3.802492421784219,Dumfries & Galloway,Kirkcudbrightshire,Kelton
282,"Kennan's Isle, Tongland Loch, Dumfries & Galloway (River Dee; Tongland Reservoir)",270480,555490,-447531,7338102,-4.02024110881976,54.8773674860314,1.4511694487029572e-12,-3.8024961538031596,Dumfries & Galloway,Kirkcudbrightshire,Tongland
283,"Corra Hill, Dumfries & Galloway",274434,555498,-440676,7338311,-3.95865771267639,54.8784482762334,1.4977483080728278e-12,-3.8024715775400026,Dumfries & Galloway,Kirkcudbrightshire,Kelton
284,"March Cleugh, Dumfries & Galloway",270480,555140,-447514,7337494,-4.02008384255957,54.8742241577985,1.4477168268932242e-12,-3.802497998528176,Dumfries & Galloway,Kirkcudbrightshire,Kelton
285,"Wraith Plantation, Dumfries & Galloway (Collin Mill Bridge)",278950,551560,-432661,7331686,-3.88666001269694,54.8441926400606,1.5002507999433897e-12,-3.8024702731976148,Dumfries & Galloway,Kirkcudbrightshire,Rerrick
286,"Suie Hill, Dumfries & Galloway",276580,550810,-436731,7330272,-3.92322515390438,54.8368776222367,1.4669670685804125e-12,-3.8024877542188924,Dumfries & Galloway,Kirkcudbrightshire,Rerrick
287,"Dungarry, Dumfries & Galloway",275750,553600,-438303,7335077,-3.93734113475196,54.8617304780525,1.491275949654708e-12,-3.8024749585134843,Dumfries & Galloway,Kirkcudbrightshire,Rerrick
288,"Meikle Sypland, Dumfries & Galloway (Sypland Mote)",270920,551240,-446557,7330742,-4.01148678832245,54.8393120339509,1.4128923860097665e-12,-3.802516788930937,Dumfries & Galloway,Kirkcudbrightshire,Kirkcudbright
289,"Mote Hill, Dumfries & Galloway (Clarebrand Mote, The Round)",277060,566190,-436632,7357041,-3.92232832802702,54.9751302358036,1.6456064268974809e-12,-3.8023971196496342,Dumfries & Galloway,Kirkcudbrightshire,Crossmichael
290,"Crofts Mote, Dumfries & Galloway",274320,565910,-441380,7356421,-3.96498719635422,54.9719316301565,1.60247630188117e-12,-3.802418311261014,Dumfries & Galloway,Kirkcudbrightshire,Crossmichael
291,"Auld Kirk of Lochroan, Dumfries & Galloway",273870,569130,-442320,7362009,-3.97343145973792,55.0007368040158,1.6247738648015664e-12,-3.802407303756764,Dumfries & Galloway,Kirkcudbrightshire,Crossmichael
292,"Dunmuir Hill, Dumfries & Galloway (Dunmore)",276469,563035,-437508,7351518,-3.93019692133227,54.946648017024,1.6045483912230734e-12,-3.8024172836034986,Dumfries & Galloway,Kirkcudbrightshire,Crossmichael
293,"Torrs Hill, Dumfries & Galloway (Doonend Hill)",277684,561530,-435326,7348957,-3.91059791414627,54.933430540959,1.6047203063132682e-12,-3.8024171983857737,Dumfries & Galloway,Kirkcudbrightshire,Kelton
294,"Camphill, Dumfries & Galloway (Meikle Knox)",279890,562670,-431548,7351045,-3.87666499931633,54.944205672886,1.6470743346891816e-12,-3.8023964056475124,Dumfries & Galloway,Kirkcudbrightshire,Buittle
295,"Meikle Wood Hill, Dumfries & Galloway (Kelton Mains)",274529,562100,-440832,7349797,-3.9600575618752,54.9377661709134,1.5683775072767274e-12,-3.8024353650637717,Dumfries & Galloway,Kirkcudbrightshire,Kelton
296,"Moat Hill, Margley, Dumfries & Galloway",277020,573260,-437040,7369365,-3.92599399786697,55.0386178559825,1.712662014688349e-12,-3.802364971365843,Dumfries & Galloway,Kirkcudbrightshire,Kirkpatrick Durham
297,"Crofts, Dumfries & Galloway",279060,574850,-433563,7372237,-3.89476472368303,55.053398963197,1.7621653675502516e-12,-3.8023418285975277,Dumfries & Galloway,Kirkcudbrightshire,Kirkpatrick Durham
298,"Glengappock Mote, Dumfries & Galloway (Glenroan Mote; Goenroan Mote)",275000,570430,-440418,7364331,-3.95634504668981,55.0126973868316,1.6541534866295442e-12,-3.8023929688625793,Dumfries & Galloway,Kirkcudbrightshire,Crossmichael
299,"Minnydow Mote, Dumfries & Galloway",279750,570980,-432180,7365517,-3.88233907485782,55.0188083970245,1.7359353152603882e-12,-3.802354030540683,Dumfries & Galloway,Kirkcudbrightshire,Kirkpatrick Durham
300,"Mochrum Fell, Dumfries & Galloway (Nick of Mochrum)",272080,574490,-445701,7371269,-4.00379790388812,55.0484169929834,1.638044229008063e-12,-3.8024008054219456,Dumfries & Galloway,Kirkcudbrightshire,Parton
301,"Glenlair Burn, Dumfries & Galloway",274960,572590,-440593,7368096,-3.95791574377756,55.032086420925,1.6721409851463221e-12,-3.802384284813504,Dumfries & Galloway,Kirkcudbrightshire,Parton
302,"White Isle, Dumfries & Galloway",275860,584190,-439590,7388402,-3.94890429669989,55.1364919568454,1.775581181408642e-12,-3.802335639394415,Dumfries & Galloway,Dumfriesshire,Dunscore
303,"Loch Knowe, Dumfries & Galloway",276100,584830,-439202,7389533,-3.94542150678377,55.142299888209,1.7845961407649288e-12,-3.8023314998061757,Dumfries & Galloway,Dumfriesshire,Dunscore
304,"Castle Hill, Dumfries & Galloway (Dalwhat)",272820,594000,-445386,7405427,-4.00097126771003,55.2238200699135,1.7603666864223947e-12,-3.802342661032808,Dumfries & Galloway,Dumfriesshire,Glencairn
305,"Big Airds Hill, Dumfries & Galloway (Airds)",281470,548630,-428161,7326716,-3.84623680497353,54.81847885087,1.48537780035255e-12,-3.8024780489705576,Dumfries & Galloway,Kirkcudbrightshire,Rerrick
306,"Airds, Dumfries & Galloway",281890,548350,-427421,7326249,-3.83958965814663,54.8160631092162,1.4852227699155833e-12,-3.802478130323882,Dumfries & Galloway,Kirkcudbrightshire,Rerrick
307,"Little Airds Hill, Dumfries & Galloway",282070,548710,-427126,7326882,-3.83693681184004,54.8193390342134,1.4918181658668948e-12,-3.80247467486066,Dumfries & Galloway,Kirkcudbrightshire,Rerrick
308,"Court Hill, Dumfries & Galloway (Ramshaw Wood)",281970,558370,-427739,7343660,-3.8424449667519,54.9060806888232,1.6206017133122616e-12,-3.80240935489108,Dumfries & Galloway,Kirkcudbrightshire,Buittle
309,"Moyle Hill, Dumfries & Galloway (Barnbarroch; The Moyle)",284880,557510,-422651,7342296,-3.79673864826499,54.8990355822133,1.6424989267833112e-12,-3.8023986327131243,Dumfries & Galloway,Kirkcudbrightshire,Colvend And Southwick
310,"Castlehill Point, West Barcloy, Dumfries & Galloway (Castle Point)",285410,552420,-421506,7333473,-3.78645438365112,54.8534383389644,1.5753443053884321e-12,-3.8024318587033927,Dumfries & Galloway,Kirkcudbrightshire,Colvend And Southwick
311,"Port o' Warren, Dumfries & Galloway",288040,553520,-416996,7335499,-3.74593601559304,54.8639145189573,1.6165693974517198e-12,-3.8024113409814064,Dumfries & Galloway,Kirkcudbrightshire,Colvend And Southwick
312,"Mote of Mark, Dumfries & Galloway (Rockcliffe)",284500,554030,-423155,7336230,-3.80126598212548,54.867690246943,1.5895990542537796e-12,-3.8024247198199643,Dumfries & Galloway,Kirkcudbrightshire,Colvend And Southwick
313,"Nethertown of Almorness, Dumfries & Galloway (Nethertown Cottages; Almorness Point; Cocklehaen)",282650,553910,-426357,7335938,-3.83002794893994,54.8661816231176,1.569017326982532e-12,-3.802435042566904,Dumfries & Galloway,Kirkcudbrightshire,Buittle
314,"Camp Hill, Dumfries & Galloway",280708,565060,-430238,7355245,-3.86489611777847,54.9658681979208,1.6859877208868404e-12,-3.802377646646766,Dumfries & Galloway,Kirkcudbrightshire,Urr
315,"Waterside, Dumfries & Galloway",280900,565950,-429946,7356804,-3.86226871265908,54.9739077927642,1.6989348129484101e-12,-3.8023714760334033,Dumfries & Galloway,Kirkcudbrightshire,Urr
316,"Barr Hill, Dumfries & Galloway (Springholm)",281564,569378,-428950,7362808,-3.85331943438894,55.0048552561795,1.7474556476864752e-12,-3.8023486547812446,Dumfries & Galloway,Kirkcudbrightshire,Urr
317,"Torkirra, Dumfries & Galloway (Tarkirra)",287000,564470,-419278,7354502,-3.76643453282247,54.9620357439029,1.7642955865642723e-12,-3.8023408435353137,Dumfries & Galloway,Kirkcudbrightshire,Kirkgunzeon
318,"The Doons, Dumfries & Galloway",286980,576990,-419864,7376336,-3.77169991443556,55.0744861811511,1.922554494487814e-12,-3.8022699938277515,Dumfries & Galloway,Kirkcudbrightshire,Kirkpatrick Irongray
319,"Green Island, Milton Loch, Dumfries & Galloway",283850,571640,-425075,7366858,-3.81851672219187,55.0257110782395,1.8088414250049498e-12,-3.8023204425584676,Dumfries & Galloway,Kirkcudbrightshire,Urr
320,"Dinning, Dumfries & Galloway",289216,589276,-416501,7397921,-3.74149458582655,55.1853434092425,2.096342950479251e-12,-3.8021969836406977,Dumfries & Galloway,Dumfriesshire,Closeburn
321,"Sundaywell, Dumfries & Galloway",281110,584730,-430453,7389597,-3.86682441621455,55.1426305612337,1.8864342623880625e-12,-3.8022857744121326,Dumfries & Galloway,Dumfriesshire,Dunscore
322,"Virginhall Plantation, Gallows Dike, Dumfries & Galloway (Virginhill Plantation)",286420,595550,-421668,7408792,-3.78790942174771,55.2410595260927,2.0860170869084685e-12,-3.802201194312986,Dumfries & Galloway,Dumfriesshire,Penpont
323,"Carronbridge, Bell Craig, Dumfries & Galloway",286590,598190,-421489,7413431,-3.78630057231153,55.2648100721914,2.108279823180156e-12,-3.802192135044055,Dumfries & Galloway,Dumfriesshire,Durisdeer
324,"Grennan Hill, Dumfries & Galloway",282540,595070,-428435,7407773,-3.84869857782252,55.235839573867,1.991039853286997e-12,-3.80224066355247,Dumfries & Galloway,Dumfriesshire,Penpont
325,"Rosehill, Dumfries & Galloway",288419,592168,-418021,7402952,-3.75514790825166,55.2111395291165,2.1053173133648054e-12,-3.802193336483667,Dumfries & Galloway,Dumfriesshire,Closeburn
326,"Tynron Doon, Dumfries & Galloway",281970,593927,-429379,7405743,-3.8571785851714,55.2254379061077,1.970625027894691e-12,-3.8022493277723366,Dumfries & Galloway,Dumfriesshire,Tynron
327,"Borron Hill, Dumfries & Galloway (Arbigland)",299357,557707,-397539,7343244,-3.57115046311386,54.9039330509384,1.78801721931435e-12,-3.802329932912699,Dumfries & Galloway,Kirkcudbrightshire,Kirkbean
328,"Kirkland Moat, Dumfries & Galloway",298390,575010,-399900,7373358,-3.59236641894667,55.0591684458669,2.0782548450045407e-12,-3.8022043697220593,Dumfries & Galloway,Dumfriesshire,Dumfries
329,"Ingleston Mote, Dumfries & Galloway",291256,578832,-412490,7379739,-3.70546510912468,55.0919870987766,2.0192406152233417e-12,-3.802228801995353,Dumfries & Galloway,Kirkcudbrightshire,Kirkpatrick Irongray
330,"Hall Hill Mote, Dumfries & Galloway (Hallhill)",290590,579490,-413680,7380861,-3.71614880962964,55.097750848935,2.015763145644783e-12,-3.802230258030655,Dumfries & Galloway,Kirkcudbrightshire,Kirkpatrick Irongray
331,"Beacon Hill, Dumfries & Galloway (Colstrand Fort)",291390,576430,-412155,7375549,-3.70244965785368,55.0704411091149,1.9904405596263144e-12,-3.8022409169623708,Dumfries & Galloway,Kirkcudbrightshire,Terregles
332,"Camp Hill, Trohoughton, Dumfries & Galloway",299630,572690,-397649,7369357,-3.57214406539514,55.0385804460445,2.057377936065421e-12,-3.8022129537332003,Dumfries & Galloway,Dumfriesshire,Dumfries
333,"Castlehill, Dumfries & Galloway (Castle Hill)",292790,574960,-409654,7373042,-3.67998187541795,55.0575414708578,1.9930055518675877e-12,-3.8022398327560007,Dumfries & Galloway,Kirkcudbrightshire,Troqueer
334,"Goldielea Wood, Dumfries & Galloway",293020,573850,-409207,7371114,-3.67596619679044,55.047620607793,1.980891981517691e-12,-3.8022449621643806,Dumfries & Galloway,Kirkcudbrightshire,Troqueer
335,"Temple Wood, Dumfries & Galloway",291840,585220,-411743,7390934,-3.69875288025374,55.1494932282346,2.1072443757119908e-12,-3.8021925548260285,Dumfries & Galloway,Dumfriesshire,Dunscore
336,"Mullach, Dumfries & Galloway (Beacon Hill)",292910,586980,-409949,7394060,-3.68263636833641,55.1655347128253,2.1485730586212432e-12,-3.8021759164754942,Dumfries & Galloway,Dumfriesshire,Kirkmahoe
337,"The Belt, Dumfries & Galloway",293230,585820,-409342,7392043,-3.67717799805759,55.1551845059863,2.1413760942247426e-12,-3.8021787968041916,Dumfries & Galloway,Dumfriesshire,Kirkmahoe
338,"Longbank, Dumfries & Galloway",296000,584576,-404454,7389981,-3.63326910424961,55.1446004840986,2.1784942317882064e-12,-3.8021640172914983,Dumfries & Galloway,Dumfriesshire,Kirkmahoe
339,"Castle Hill, Dumfries & Galloway",297420,584270,-401962,7389503,-3.61088880155289,55.1421482298609,2.2003355070740213e-12,-3.802155407212625,Dumfries & Galloway,Dumfriesshire,Kikmahoe
340,"Burnhead, Dumfries & Galloway",286049,595507,-422315,7408700,-3.79372388061191,55.2405877258251,2.076936848810692e-12,-3.8022049097612127,Dumfries & Galloway,Dumfriesshire,Penpont
341,"Sour Hill, Dumfries & Galloway",267204,552997,-453083,7333605,-4.07011687325628,54.8541191048167,1.3895120616946845e-12,-3.80252959679949,Dumfries & Galloway,Kirkcudbrightshire,Twynholm
342,"Leffnoll, Dumfries & Galloway",208075,565960,-556446,7352415,-4.99863873194812,54.9512736801962,8.358218923268887e-13,-3.8028940121419157,Dumfries & Galloway,Wigtownshire,Inch
343,"Cults Loch, Dumfries & Galloway (Castle Kennedy House)",211930,560500,-549357,7343207,-4.93495532080887,54.9037409281836,8.555657939628773e-13,-3.802878318330873,Dumfries & Galloway,Wigtownshire,Inch
344,"Kirkland Hill, Dumfries & Galloway",241925,551710,-496798,7329951,-4.46281675796184,54.8352171649525,1.1089760124645666e-12,-3.802697298019932,Dumfries & Galloway,Wigtownshire,Kirkinner
345,"Springfield Hill, Dumfries & Galloway",289440,584310,-415894,7389238,-3.73603898774867,55.140789135121,2.0500836750398224e-12,-3.8022159680695253,Dumfries & Galloway,Dumfriesshire,Dunscore
346,"Mcculloch's Castle, Dumfries & Galloway",299620,557690,-397082,7343224,-3.5670445020037,54.9038332880146,1.7898740723570241e-12,-3.802329083377745,Dumfries & Galloway,Kirkcudbrightshire,Kirkbean
347,"Evening Bank Wood, Cumbria (Dacre)",348470,527500,-311687,7292306,-2.79993630925623,54.6399880387972,1.1590885871467245e-12,-3.802665209912282,Cumbria,Westmorland,Dacre
349,"Castle Frome, Herefordshire",367106,245747,-276267,6819863,-2.48174444593035,52.1090287179013,1.4427479285384047e-12,-3.8025006590961463,Herefordshire,Herefordshire,Castle Frome
350,"Bomere Heath, Shropshire",347573,320101,-309316,6941655,-2.7786372278186,52.7759152390636,1.2809961094047068e-12,-3.802591213963775,Shropshire,Shropshire,Pimhill
351,"Bomere Wood, Shropshire",350104,308093,-304937,6921861,-2.73929316355107,52.668215323105,1.3448681587591519e-12,-3.8025545010959285,Shropshire,Shropshire,Bayston Hill
352,"Bwlch y Gwynt, Shropshire",326093,324630,-344871,6948686,-3.09803089685746,52.8141053597751,1.4498727410303016e-12,-3.8024968462502136,Shropshire,Shropshire,Oswestry Rural
354,"Gelli Lwyd, Shropshire",321857,323091,-351825,6946029,-3.1604995872049,52.7996751480106,1.4903131352642719e-12,-3.80247546238379,Shropshire,Shropshire,Llanyblodwel
355,"Preston Springs, Shropshire",353906,327064,-298976,6953288,-2.68574761409227,52.8390845631168,1.1415811484316192e-12,-3.802676301920793,Shropshire,Shropshire,Moreton Corbet with lee Brockhurst
356,"Ritton Castle, Shropshire",334440,297650,-330488,6904342,-2.96882098404253,52.5726759758879,1.6033375877775164e-12,-3.8024178839853757,Shropshire,Shropshire,Worthen with Shelve
357,"Stevenshill, Shropshire",355692,303646,-295672,6914615,-2.65606723668075,52.6287265112611,1.30141290829117e-12,-3.8025793347185606,Shropshire,Shropshire,Cound
358,"Stockton Wood, Shropshire (Stocktonwood)",326683,302324,-343342,6911859,-3.08429582684315,52.6136959352474,1.638186362955641e-12,-3.8024007360311134,Shropshire,Shropshire,Chirbury with Brompton
359,"Woodhouse Farm, Shropshire",343833,305162,-315203,6916913,-2.83151671242683,52.6412541268085,1.4466287912052695e-12,-3.8024985805342806,Shropshire,Shropshire,Pontesbury
361,"Grinsdale Camp, Cumbria (Skew Hill)",337562,558490,-331243,7345815,-2.97560214244183,54.9172108640504,1.963103244402389e-12,-3.8022525367615136,Cumbria,Cumberland,Kingmoor
362,"The Mount, Beoley, Worcestershire",406538,269421,-212120,6858707,-1.90550835517132,52.3228172660475,9.395146933512377e-13,-3.8028144257475636,Worcestershire,Worcestershire,Beoley
363,"Elmley Castle Earthworks, Worcestershire (Elmley Castle)",397889,240229,-226225,6811053,-2.03221772834114,52.0603974701103,1.1738966669273277e-12,-3.8026559241228335,Worcestershire,Worcestershire,Elmley Castle
364,"Wychbury Ring, Worcestershire (Wychbury Camp; Wychbury Hill Camp)",391872,281744,-236108,6878905,-2.12099281462279,52.4335806262153,9.880048383729565e-13,-3.802779418846023,Worcestershire,Worcestershire,Hagley
365,"Harborough Hill, Churchill, Worcestershire",388927,279181,-240920,6874690,-2.16422481259282,52.410486504859,1.0336139556970665e-12,-3.8027476296465945,Worcestershire,Worcestershire,Churchill
366,"Church Coppice, Hanbury, Worcestershire",395370,264418,-230353,6850522,-2.06929697089414,52.2778556559568,1.061676683973797e-12,-3.8027285808658204,Worcestershire,Worcestershire,Hanbury
367,"Woodbury, Great Witley, Worcestershire (Woodbury Hill)",374939,264523,-263690,6850593,-2.36876453728741,52.2782442270162,1.274670502430151e-12,-3.8025949227432823,Worcestershire,Worcestershire,Great Witley
368,"Berrow Hill Camp, Martley, Worcestershire",374482,258580,-264385,6840874,-2.37501203532251,52.2247937612286,1.3091565988890406e-12,-3.802574865086848,Worcestershire,Worcestershire,Martley
369,"Kempsey Promontory Fort, Worcestershire",384829,249117,-247475,6825497,-2.2231088296979,52.1401004260153,1.2447954597651996e-12,-3.802612624542037,Worcestershire,Worcestershire,Kempsey
370,"Arley Wood Camp, Worcestershire",380360,282376,-254961,6879889,-2.29035769911556,52.4389679130711,1.108811894093279e-12,-3.802697404848264,Worcestershire,Worcestershire,Arley
371,"Castle Hill Camp, Bow Wood, Worcestershire",393885,255348,-232758,6835697,-2.09089633667338,52.196297000265,1.127582935215274e-12,-3.8026852612003315,Worcestershire,Worcestershire,Upton Snodsbury
373,"Berry Mound Camp, Worcestershire (Dane's Camp)",409530,277903,-207207,6872599,-1.86137088773425,52.3990297248755,8.653442083825033e-13,-3.8028706444677787,Worcestershire,Warwickshire,Wythall
374,"Tunnel Hill, Chadbury, Worcestershire",401948,247446,-219630,6822810,-1.97297382277706,52.1252849282011,1.1044368447684097e-12,-3.802700256973113,Worcestershire,Worcestershire,Norton and Lenchwick
375,"Conderton Camp, Worcestershire (Danes Camp)",397158,238348,-227411,6807991,-2.04286393316614,52.0434823832487,1.1888213297089942e-12,-3.8026466521969247,Worcestershire,Gloucestershire,Conderton
376,"Gadbury Bank, Worcestershire (Gadbury Camp)",379238,231609,-256451,6796964,-2.3037342532966,51.9825091392693,1.3677835400785828e-12,-3.8025416430350307,Worcestershire,Worcestershire,Eldersfield
378,"Kemerton Camp, Bredon Hill, Worcestershire (Bredon Hill Camp)",395755,240233,-229690,6811058,-2.06334436820726,52.060420815211,1.190982880945435e-12,-3.8026453164618497,Worcestershire,Gloucestershire,Eckington
381,"Island Covert, Worcestershire",384383,238539,-248147,6808263,-2.22913804340717,52.0449846569052,1.2963238662503429e-12,-3.8025822827836047,Worcestershire,Worcestershire,Upton-upon- Severn
383,"Drakelow, Worcestershire (Solcum Farm Promontory Fort, Wolverley)",382198,280882,-251943,6877448,-2.2632396528643,52.4255999601097,1.0965222259129062e-12,-3.8027054378014933,Worcestershire,Worcestershire,Wolverley and Cookley
384,"Whitley Crag, Asby, Cumbria",369687,513582,-274934,7268615,-2.46976967142768,54.5166365711006,8.366999326408134e-13,-3.8028933084402885,Cumbria,Westmorland,Asby
386,"Battlesbury Camp, Wiltshire",389852,145653,-238967,6658513,-2.14667656218239,51.2099353732402,1.2238521733769383e-12,-3.8026252216621135,Wiltshire,Wiltshire,Warminster
387,"Barbury Castle, Wiltshire",414933,176285,-198855,6707586,-1.78634623086164,51.4852721067709,1.208623488113455e-12,-3.802634481679969,Wiltshire,Wiltshire,Ogbourne St Andrew
388,"Liddington Castle, Wiltshire (Badbury Camp)",420869,179704,-189316,6713050,-1.7006567839191,51.5158272491522,1.1747848667389742e-12,-3.802655369905431,Wiltshire,Wiltshire,Liddington
389,"Casterley Camp, Wiltshire (Catterley Banks)",411584,153560,-204306,6671153,-1.83531268463496,51.2810115600592,1.1709687067823623e-12,-3.8026577532984858,Wiltshire,Wiltshire,Upavon
390,"Sidbury Camp, Wiltshire (Chidbury; Sidbury Hillfort)",421641,150549,-188275,6666284,-1.69130010170129,51.2536454261604,1.1039709973022055e-12,-3.8027005611526628,Wiltshire,Wiltshire,Tidworth
391,"Bilbury Rings, Wiltshire (Wylye Camp)",401000,136242,-221204,6643506,-1.98710799361083,51.1254013330714,1.1296366764418872e-12,-3.8026839416300637,Wiltshire,Wiltshire,Wylye
392,"Grovely Castle, Wiltshire",404830,135790,-215112,6642782,-1.9323847213735,51.1213180082412,1.1121371953839286e-12,-3.802695242605657,Wiltshire,Wiltshire,Steeple Langford
393,"Wick Ball Camp, Wiltshire",400048,131957,-222718,6636674,-2.00071111817787,51.0868702140313,1.1053834873494724e-12,-3.802699639145081,Wiltshire,Wiltshire,Teffont
394,"Yarnbury Castle, Wiltshire (Yarnbury Camp)",403526,140392,-217181,6650126,-1.95097291725237,51.1627093992315,1.1446022762241571e-12,-3.8026743789450186,Wiltshire,Wiltshire,Steeple Langford
395,"Broadbury Banks, Wiltshire",409274,155543,-207987,6674334,-1.86838204628733,51.2988844962489,1.1902962270812696e-12,-3.8026457405871983,Wiltshire,Wiltshire,Wilsford
396,"Oldbury Castle, Wiltshire (Oldbury Hill; Oldbury Camp)",404939,169280,-214888,6696365,-1.9303736539638,51.4224590269747,1.2532198761294803e-12,-3.8026076014135017,Wiltshire,Wiltshire,Cherhill
397,"Rybury Camp, Wiltshire",408330,163965,-209473,6687831,-1.88172748911512,51.3746285667851,1.2224975542390138e-12,-3.8026260419042126,Wiltshire,Wiltshire,All Cannings
398,"Oliver's Castle, Wiltshire (Oliver's Camp)",400102,164681,-222632,6688989,-1.99993973664001,51.381126410213,1.2653838419984192e-12,-3.8026003922848375,Wiltshire,Wiltshire,Bromham
399,"Ringsbury Camp, Wiltshire",407489,186760,-210765,6724467,-1.89333317191866,51.5796052459874,1.2573746453533286e-12,-3.802605133258963,Wiltshire,Wiltshire,Purton
400,"Bury Hill Camp, Purton, Wiltshire",405755,190102,-213545,6729855,-1.91830366163429,51.6096748947788,1.2667545535830167e-12,-3.8025995831226442,Wiltshire,Wiltshire,Purton
401,"Odstock Copse, Wiltshire",414463,125173,-199837,6625839,-1.7951675001021,51.025686700953,1.0025939012624974e-12,-3.802769134801969,Wiltshire,Wiltshire,Odstock
402,"Great Woodbury, Wiltshire",414360,127843,-199989,6630090,-1.79653103670221,51.0496987279168,1.020910676933792e-12,-3.8027563780875018,Wiltshire,Wiltshire,Britford
403,"Clearbury Ring, Wiltshire",415248,124361,-198595,6624543,-1.78400824226552,51.0183647787278,9.935274087324218e-13,-3.8027755128200633,Wiltshire,Wiltshire,Odstock
404,"Ogbury Camp, Wiltshire",414320,138294,-200007,6646748,-1.79668997023551,51.143677375044,1.0846175806076667e-12,-3.802713282628291,Wiltshire,Wiltshire,Durnford
405,"Figsbury Ring, Wiltshire (Chlorus' Camp)",418839,133826,-192841,6639599,-1.73232263304292,51.1033703987412,1.0364312375840166e-12,-3.8027457002025646,Wiltshire,Wiltshire,Firsdown
406,"Old Sarum, Wiltshire",413779,132698,-200891,6637826,-1.80463599203005,51.093370284006,1.0544514164944835e-12,-3.802733449502225,Wiltshire,Wiltshire,Salisbury City
407,"Vespasian's Camp, Wiltshire",414703,141666,-199382,6652128,-1.79107802038245,51.1739891487767,1.100837922479478e-12,-3.802702609385921,Wiltshire,Wiltshire,Amesbury
408,"Chisenbury Camp, Wiltshire (Cissanbyrig; Chisenbury Trendle)",415191,153873,-198548,6671639,-1.78358318642251,51.2837418740961,1.1531463334182337e-12,-3.8026689607527393,Wiltshire,Wiltshire,Enford
409,"Giant's Grave, Wiltshire",416635,163244,-196194,6686642,-1.76244334484374,51.3679643229778,1.1749936091697445e-12,-3.802655239699518,Wiltshire,Wiltshire,Wilcot
410,"Martinsell Hill Camp, Wiltshire (Martin's Hill; Martinsell)",417401,163970,-194965,6687802,-1.75140452144235,51.3744695189066,1.1724059416291781e-12,-3.8026568549982995,Wiltshire,Wiltshire,Milton Libourne
411,"Scratchbury Camp, Wiltshire (Scratchbury Hill)",391280,144242,-236687,6656263,-2.12619902959799,51.1972713771408,1.2111694866183506e-12,-3.8026329275843795,Wiltshire,Wiltshire,Norton Bavant
412,"Bratton Castle, Wiltshire (Bratton Camp)",390119,151638,-238560,6668083,-2.14302102893212,51.2637573898405,1.2548077260916465e-12,-3.8026066574347706,Wiltshire,Wiltshire,Bratton
413,"Castle Hill, Blunsdon St Andrew, Wiltshire (Castle Hill, Swindon; Bury Blunsdon)",415716,191176,-197526,6731552,-1.77440840226997,51.6191434451215,1.2053772386213626e-12,-3.802636466718091,Wiltshire,Wiltshire,Blunsdon St Andrew
415,"Chisbury Camp, Wiltshire (Chisbury)",427893,165971,-178168,6690937,-1.60051223941428,51.3920449989632,1.1120858204923443e-12,-3.8026952759753727,Wiltshire,Wiltshire,Little Bewyn
416,"Fosbury Camp, Wiltshire (Haydon Hill Castle; Knoll Ditches; Knolls Down)",431946,156527,-171778,6675764,-1.54310746012127,51.3069153348852,1.0609224394455206e-12,-3.8027290879580327,Wiltshire,Wiltshire,Tidcombe and Fosbury
417,"Park Hill Camp, Wiltshire (Park Hill)",376366,134719,-260378,6640990,-2.33901499498894,51.1112154479915,1.1868574665909124e-12,-3.8026478673234356,Wiltshire,Wiltshire,Stourton with Gasper
418,"Kenwalch's Castle, Wiltshire (Castle Wood)",374777,133542,-262896,6639102,-2.36163120695738,51.100563760923,1.1810494288461754e-12,-3.8026514697019342,Wiltshire,Wiltshire,Stourton with Gasper
419,"Castle Rings, Donhead St Mary, Wiltshire",388769,125090,-240621,6625719,-2.16153442928379,51.0250082032683,1.0885385076010277e-12,-3.802710691867731,Wiltshire,Wiltshire,Donhead St. Mary
420,"Winklebury Camp, Wiltshire (Winkelbury; Winterburgh; Winter Camp)",395224,121718,-230370,6620370,-2.06944912574034,50.9947768060168,1.0462948331127662e-12,-3.802738975335558,Wiltshire,Wiltshire,Berwick St John
421,"White Sheet Castle, Wiltshire (Old Castle Hillfort; Whitesheet Hill; White Sheet Camp)",380429,134602,-253916,6640831,-2.28096843320579,51.1103172270744,1.1778147634269838e-12,-3.802653481636809,Wiltshire,Wiltshire,Stourton with Gasper
422,"Cley Hill Camp, Wiltshire",383887,144895,-248469,6657278,-2.2320352422508,51.20298123377,1.2373608253991546e-12,-3.8026170783654147,Wiltshire,Wiltshire,Corsley
423,"Knook Castle, Wiltshire",396006,144042,-229158,6655953,-2.05855905436686,51.1955263511034,1.1938554874243283e-12,-3.8026435440916955,Wiltshire,Wiltshire,Upton Lovell
424,"Budbury, Wiltshire",382162,161089,-251308,6683180,-2.25753881471388,51.3485445878665,1.3263835537208826e-12,-3.802564991215403,Wiltshire,Wiltshire,Bradford on Avon
425,"Bury Wood Camp, Wiltshire (Bury Ditches; Bury Camp)",381814,173960,-251938,6703831,-2.26319920891358,51.464265661864,1.3731507763948914e-12,-3.802538654406232,Wiltshire,Wiltshire,Colerne
426,"Castle Ditches, Tisbury, Wiltshire (Spelsbury; Wilburge)",396362,128373,-228573,6630963,-2.05330182676159,51.054629613132,1.0925616974123532e-12,-3.8027080406781217,Wiltshire,Wiltshire,Tisbury
427,"Ebsbury Hill, Wiltshire (Grovely Earthworks)",406160,135380,-212997,6642126,-1.91338811992544,51.1176186639219,1.1042469111708291e-12,-3.802700380980646,Wiltshire,Wiltshire,Barford St Martin
428,"Nuns Walk, Malmesbury., Wiltshire",393528,187213,-233194,6725198,-2.09482137259373,51.5836885747535,1.3365698672311473e-12,-3.8025591971902397,Wiltshire,Wiltshire,Malmesbury
429,"Chiselbury, Wiltshire",401809,128123,-219921,6630566,-1.97558616225083,51.0523911312176,1.0731120434366488e-12,-3.8027209250083778,Wiltshire,Wiltshire,Fovant
430,"Nash Hill, Wiltshire (Naish Hill)",393352,169393,-233439,6696543,-2.09702070802235,51.4234556247521,1.3098431594043632e-12,-3.802574469747984,Wiltshire,Wiltshire,Lacock
431,"Codford Circle, Wiltshire (Oldbury Camp; Wilsbury Ring; Woldsbury)",398249,140556,-225582,6650389,-2.02644088193791,51.1641913998546,1.1657913079392785e-12,-3.802660996028669,Wiltshire,Wiltshire,Codford
433,"Trendle Ring, Somerset (Bicknoller Hill)",311810,139350,-363146,6647256,-3.26219670079502,51.1465394788112,1.2734050089659826e-12,-3.8025956663453484,Somerset,Somerset,Bicknoller
434,"Dowsborough Camp, Somerset (Dowsborough Castle Hill; Danesborough; Dawesbury)",316020,139120,-356442,6647001,-3.20196974456101,51.1451056578075,1.2717039470008353e-12,-3.8025966667456266,Somerset,Somerset,Holford
435,"Elworthy Barrows, Somerset",307050,133780,-370559,6638242,-3.32879087623703,51.0957122021103,1.2250862331132052e-12,-3.802624475002935,Somerset,Somerset,Brompton Ralf
436,"Clatworthy Camp, Somerset (Clatworthy Castle; Clatworthy Hillfort)",304600,131500,-374386,6634538,-3.36316552233655,51.074812786147,1.204953099774616e-12,-3.8026367263643195,Somerset,Somerset,Clatworthy
437,"Curdon Wood Camp, Somerset (Curdon)",310220,138510,-365652,6645872,-3.28471222599319,51.138740461747,1.2660447375374445e-12,-3.8026000020625568,Somerset,Somerset,Stogumber
438,"The Castles, Bathealton, Somerset (Castles Camp)",305700,124400,-372432,6623269,-3.34561778216923,51.0111667201788,1.144227688281754e-12,-3.8026746171703447,Somerset,Somerset,Bathealton
439,"Norton Camp, Somerset (Norton Fitzwarren Hillfort)",319620,126260,-350395,6626603,-3.14765064503126,51.0300056197193,1.1601104559094226e-12,-3.802664566322601,Somerset,Somerset,Norton Fitzwarren
440,"King's Castle, Somerset (Castle Hill, Wivelscombe)",309600,128200,-366351,6629427,-3.29098844765948,51.0459559950442,1.177513011176054e-12,-3.802653669531824,Somerset,Somerset,Wiveliscombe
441,"Ilchester Mead, Somerset (The Oppidum)",352000,122000,-298935,6620466,-2.68537936501288,50.9953230108254,1.1101440193085978e-12,-3.802696538074499,Somerset,Somerset,Ilchester
442,"Bounds Lane, Somerset",331090,107450,-331793,6596985,-2.98054638173073,50.8623732080981,9.858262379526971e-13,-3.802780964163085,Somerset,Somerset,Wambrook
443,"Whitestaunton Camp, Somerset (Horse Pool Copse; Horse Pool Camp; Southay Camp; Harbury; Hamberry; Whitestanton Camp)",326500,109000,-339087,6599344,-3.04606729588536,50.8757433709237,1.0023347457564996e-12,-3.8027693165189085,Somerset,Somerset,Whitestaunton
444,"Knapp Copse, Somerset",326400,110600,-339281,6601880,-3.04781101658165,50.890116385776,1.0170663110080549e-12,-3.8027590414207304,Somerset,Somerset,Whitestaunton
445,"Dundon Hill Camp, Somerset (Compton Dundon Hillfort)",348500,132200,-304648,6636650,-2.73670221835411,51.0867343011781,1.200877460042938e-12,-3.802639224800689,Somerset,Somerset,Compton Dundon
446,"Milborne Wick, Somerset (Burrow Hill)",367000,120600,-275128,6618427,-2.47151578074433,50.9837923641289,1.0864809473843198e-12,-3.802712050545424,Somerset,Somerset,Milborne Port
447,"Westwood, Somerset (West Wood Hillfort)",346060,129630,-308483,6632516,-2.77115250260057,51.0634014728717,1.1804746148641688e-12,-3.8026518269343725,Somerset,Somerset,Somerton
448,"Ham Hill, Somerset (Hamdon Hill Camp)",348409,116570,-304545,6611780,-2.73577383106752,50.9461865738224,1.062916012145282e-12,-3.8027277482195374,Somerset,Somerset,Montacute
449,"Brean Down Camp, Somerset",329790,158850,-334963,6678869,-3.00902353139619,51.3243486517975,1.4262488746988542e-12,-3.802509542162506,Somerset,Somerset,Brean
450,"Ruborough Camp, Somerset (Roberrow; Roborough; Roborough)",322747,133562,-345606,6638308,-3.10462865520837,51.0960847438473,1.2234692554496816e-12,-3.802625453456746,Somerset,Somerset,Broomfield
451,"Rooks Castle, Somerset",325300,132300,-341519,6636357,-3.06791539708191,51.0850771857415,1.2120162667946983e-12,-3.8026324112374716,Somerset,Somerset,Broomfield
452,"Cannington Park Camp, Somerset (Cynwit Castle; Cynuit Castle; Gynwir Castle; Kynwich Castle)",324700,140500,-342663,6649418,-3.07819515035642,51.1587219032194,1.282348345058109e-12,-3.802590422884105,Somerset,Somerset,Cannington
453,"Brent Knoll, Somerset (Brent Knoll)",334100,150900,-327915,6666238,-2.94570845467624,51.2533886872397,1.362486503495464e-12,-3.8025446010635324,Somerset,Somerset,East Brent
454,"Plainsfield Camp, Somerset (Cockercombe Castle)",318430,136210,-352534,6642422,-3.16686475286411,51.1192926741638,1.2467948811909777e-12,-3.8026114301074623,Somerset,Somerset,Over Stowey
455,"Orchard Wood, Somerset (Orchard Wood Hillfort)",324900,120300,-341877,6617250,-3.07113520879184,50.9771353108656,1.105798204611406e-12,-3.8026993686019623,Somerset,Somerset,Orchard Portman
456,"Mells Down Camp, Somerset",372390,151510,-266845,6667774,-2.39710718040874,51.2620202987606,1.3068353789558718e-12,-3.80257620283683,Somerset,Somerset,Mells
457,"Winsmoor Hill, Stocklinch, Somerset",339150,117060,-319224,6612399,-2.86763986005663,50.9496877719597,1.0713140353724167e-12,-3.8027221247588394,Somerset,Somerset,Barrington
458,"Blacker's Hill, Somerset",363600,150000,-280851,6665271,-2.52292611292623,51.2479478347366,1.3168955503635701e-12,-3.8025704176210167,Somerset,Somerset,Chilcompton
459,"Maesbury Castle, Somerset (Marksbury)",361000,147100,-284962,6660604,-2.55985947985687,51.2216997809536,1.302129313604921e-12,-3.802578920390114,Somerset,Somerset,Croscombe
460,"Dinies Camp, Somerset",367670,145830,-274318,6658649,-2.46423752970109,51.2106981061369,1.2814020014215514e-12,-3.8025909764457624,Somerset,Somerset,Downhead
461,"Tedbury Camp, Somerset",374400,148800,-263616,6663457,-2.36810600031894,51.237746550978,1.285679032935041e-12,-3.8025884769974954,Somerset,Somerset,Great Elm
462,"Small Down Camp, Somerset (Small Down Knoll Camp)",366600,140600,-275969,6650285,-2.47906732534816,51.1636091308468,1.2468675141273998e-12,-3.802611386743854,Somerset,Somerset,Evercreach
463,"Kingsdown Camp, Somerset",371880,151720,-267660,6668105,-2.40443285710911,51.2638835548949,1.3093310319075692e-12,-3.8025747646294352,Somerset,Somerset,Mells
464,"Wadbury Camp, Somerset (Wadbury Hillfort)",373500,148900,-265052,6663609,-2.38100509902812,51.2386044840139,1.2884605296274746e-12,-3.8025868548103365,Somerset,Somerset,Mells
465,"Fox Covert, Somerset",366650,136770,-275849,6644175,-2.47799642573164,51.1291731470614,1.2184985972954117e-12,-3.802628467247527,Somerset,Somerset,Lamyat
466,"Westbury Camp, Somerset",349200,151100,-303834,6666833,-2.72938468398346,51.2567348779731,1.3482247153300036e-12,-3.80255260765069,Somerset,Somerset,Rodney Stoke
467,"Roddenbury Hill, Somerset (Roddenbury Camp)",379800,143900,-254975,6655665,-2.29047799341358,51.1939035767616,1.2420486695943375e-12,-3.8026142677556845,Somerset,Somerset,Selwood
468,"Yeavering Bell Camp, Northumberland",392800,629310,-235518,7470818,-2.11569284697296,55.557459217245,3.1636645838805865e-12,-3.8018261315933914,Northumberland,Northumberland,Kirknewton
469,"Fawcett Shank, Northumberland",388714,623085,-242700,7459801,-2.18021242255508,55.5014461508328,3.2465852456375693e-12,-3.801801449444339,Northumberland,Northumberland,Kirknewton
470,"Great Hetha, Northumberland (Great Hetha Camp)",388550,627400,-243009,7467425,-2.18298846381971,55.5402148361142,3.2868187793537456e-12,-3.8017896407031246,Northumberland,Northumberland,Kirknewton
471,"Ring Chesters, Northumberland (Elsdon Burn Camp)",386704,628900,-246274,7470068,-2.21231290715608,55.5536458690162,3.34845847914411e-12,-3.801771754150583,Northumberland,Northumberland,Kilham
472,"Staw Hill, Northumberland",388463,630103,-243175,7472204,-2.18448079906859,55.564500511751,3.3046843845869673e-12,-3.8017844312065385,Northumberland,Northumberland,Kirknewton
473,"Middleton Dean, Northumberland (Dod Hill (North) Camp)",399788,621927,-223185,7457782,-2.00490313519731,55.4911732980739,2.860127942709709e-12,-3.801920768381934,Northumberland,Northumberland,Ilderton
474,"West Wylam, Northumberland",410568,563566,-204434,7355393,-1.83645982337131,54.9666314289618,1.4333212292055424e-12,-3.8025057251893264,Northumberland,Northumberland,Prudhoe
475,"Prendwick Chesters, Northumberland (Prickly Knowe Enclosures)",398470,614890,-225502,7445367,-2.02572123168234,55.427938605993,2.8336511782612262e-12,-3.801929368797866,Northumberland,Northumberland,Alnham
476,"Camp Hill, Northumberland",418130,612370,-190939,7440862,-1.71523521477999,55.4049658240982,1.988862260019179e-12,-3.802241584611849,Northumberland,Northumberland,Alnwick
477,"Glead's Cleugh Camp, Northumberland (Gledes-Cleugh Camp; Gleadscleugh)",394887,629090,-231834,7470434,-2.08260332802392,55.5555091682139,3.0900322515657636e-12,-3.8018484520183065,Northumberland,Northumberland,Akeld
478,"Humbleton Hill Camp, Northumberland (Homildon; Hameldun; Holmedon; Homilheugh)",396692,628262,-228648,7468973,-2.0539797242211,55.5480851008193,3.0202362384702387e-12,-3.801869974500922,Northumberland,Northumberland,Akeld
479,"Monday Cleugh, Northumberland",395611,628494,-230556,7469382,-2.07111659294376,55.5501609981346,3.0611662408596553e-12,-3.801857309309795,Northumberland,Northumberland,Akeld
480,"Castle Hill Alnham, Northumberland",397993,610940,-226338,7438407,-2.03322858815731,55.3924431511712,2.7943149001761192e-12,-3.8019422564159053,Northumberland,Northumberland,Alnham
481,"Chubden Camp, Northumberland (Low Chubden)",402439,613532,-218522,7442973,-1.9630178142461,55.4157331181562,2.667546039556252e-12,-3.8019847212297666,Northumberland,Northumberland,Alnham
482,"Isabella's Mount Camp, Northumberland (Rayheugh)",413370,627570,-199226,7467717,-1.78967863740926,55.5416985190244,2.2989915590467134e-12,-3.80211728275286,Northumberland,Northumberland,Adderstone with Lucker
483,"Lucker Camp, Northumberland (Ratchwood)",414636,629200,-196983,7470592,-1.76953112699563,55.5563087377973,2.242458234375669e-12,-3.802138978309231,Northumberland,Northumberland,Adderstone with Lucker
484,"Roundabouts Camp, Northumberland",413170,631080,-199560,7473925,-1.7926819883734,55.5732428692128,2.3143903718347764e-12,-3.802111441463327,Northumberland,Northumberland,Adderstone with Lucker
485,"Broxmouth, East Lothian",370111,677388,-276146,7556140,-2.4806617020268,55.9885673048468,3.129058864017788e-12,-3.8018365735024604,East Lothian,East Lothian,Dunbar
486,"Castle Dykes, Dunglass Dean, Scottish Borders (Castle Dykes, Dunglass Mill)",377300,672398,-263272,7547301,-2.36500923624336,55.9441288300071,3.1375726004993116e-12,-3.8018339967073094,Scottish Borders,Berwickshire,Cockburnspath
487,"Castle Dykes, Bilsdean, East Lothian",376600,672620,-264521,7547691,-2.37623580843744,55.9460897387915,3.145742953583212e-12,-3.8018315286841906,East Lothian,East Lothian,Oldhamstocks
488,"Portencross, Auld Hill, North Ayrshire (Auldhill)",217830,649100,-545526,7499137,-4.90054686302036,55.7010768758485,8.958865102910415e-13,-3.8028470800209893,North Ayrshire,Ayrshire,West Kilbride
489,"Easter Pinkerton, East Lothian (Thurston)",370778,675030,-274927,7551933,-2.4697138833536,55.9674228429523,3.1804134826348384e-12,-3.8018211080075095,East Lothian,East Lothian,Dunbar
491,"Gallow Law, Northumberland (Clennell Street; Castle Hills)",392040,607090,-236787,7431617,-2.12709752903675,55.3577863239803,2.916349825117226e-12,-3.801902698726194,Northumberland,Northumberland,Alwinton
492,"Camp Knowe, Northumberland (Clennell Hill)",392564,607826,-235870,7432914,-2.11885219667438,55.3644081770926,2.915042410618798e-12,-3.801903115998609,Northumberland,Northumberland,Alwinton
493,"Barcombe Hill, Northumberland",378300,566820,-260568,7360994,-2.34071782437353,54.9955059550045,2.0798044548762085e-12,-3.8022037351037636,Northumberland,Northumberland,Bardon Mill
494,"Bardon Mill, Northumberland",377670,569790,-261690,7366169,-2.35079789743173,55.0221668741308,2.1772132415587596e-12,-3.8021645242445974,Northumberland,Northumberland,Bardon Mill
495,"Chesters Hill, Northumberland",410330,634670,-204560,7480293,-1.83758949257033,55.6055684599199,2.4482558883688377e-12,-3.802061831660001,Northumberland,Northumberland,Belford
496,"Bantam Hill, Northumberland (Belsay Hill)",407960,578530,-208923,7381522,-1.87678368820407,55.1011499228457,1.8219567351098586e-12,-3.8023145066974475,Northumberland,Northumberland,Belsay
497,"Harehope Hill, Northumberland",409260,620110,-206504,7454558,-1.85505505126222,55.4747607207578,2.4498389043923417e-12,-3.802061257103998,Northumberland,Northumberland,Eglingham
498,"Randy Burn Camp, Northumberland (Percy's Cross)",405722,619540,-212736,7453563,-1.91103727643761,55.4696923781299,2.5985856553680238e-12,-3.80200844951639,Northumberland,Northumberland,Bewick
499,"Bewick Hill Moor Camp, Northumberland (Blawearie Fort)",408750,621990,-207395,7457879,-1.86306460281195,55.4916629331995,2.4856034034764505e-12,-3.802048348714693,Northumberland,Northumberland,Bewick
500,"Bewick Hill Camp, Northumberland (Old Bewick West)",407507,621566,-209587,7457134,-1.882748417249,55.4878734568886,2.5375656717464725e-12,-3.8020298359162235,Northumberland,Northumberland,Bewick
501,"Halidon, Northumberland (Halidon Hill Settlement; Hallydown Hill)",396780,654800,-228528,7516038,-2.05290570026402,55.7865389080723,2.8984750803334958e-12,-3.8019084155922362,Northumberland,Northumberland,Berwick-Upon-Tweed
502,"Whiteadder Bridge, Northumberland",395751,652801,-230351,7512482,-2.06928224032013,55.7685693699385,2.963495161125846e-12,-3.801887743197033,Northumberland,Northumberland,Berwick-Upon-Tweed
503,"Brinklaw, Northumberland (Brinkburn Priory Promontory Fort)",411760,598490,-202202,7416484,-1.81640738795238,55.2804359330751,2.0803699426691998e-12,-3.802203503603966,Northumberland,Northumberland,Brinkburn & Hesleyhurst
504,"Castle Hill Callaly, Northumberland (Callaly Hill)",406028,609720,-212220,7436252,-1.90640594192176,55.3814492119604,2.4758692725904346e-12,-3.8020518483950894,Northumberland,Northumberland,Whittingham and Callaly
505,"The Old Hag, Northumberland",405220,610450,-213638,7437540,-1.91914491143996,55.3880179129132,2.5179219421534872e-12,-3.802036801316166,Northumberland,Northumberland,Callaly
506,"Tinkler's Dene, Northumberland (Tinker's Dene; Rabbit Hall Or Rabbit Hill)",404930,608790,-214151,7434617,-1.92375132489324,55.3731044789263,2.50602352520994e-12,-3.8020410398365234,Northumberland,Northumberland,Callaly
507,"Shaftoe Crags, Northumberland",405150,581700,-213819,7387074,-1.92076559438341,55.1296726309131,1.9739139935485025e-12,-3.802247927450707,Northumberland,Northumberland,Capheaton
508,"East Moneylaws Camp, Northumberland (Castle Hill)",388068,635401,-243898,7481579,-2.1909748559031,55.6120956800254,3.330593644417098e-12,-3.8017769129955377,Northumberland,Northumberland,Carham
509,"Mindrummill Farm 1, Northumberland (Mindrim-Mill Farm)",382880,633730,-253055,7478590,-2.27322980725754,55.5969252988572,3.466803634448814e-12,-3.8017380822589124,Northumberland,Northumberland,Carham
510,"Camp Hill, Downham, Northumberland (Downham Camp)",386814,634074,-246107,7479223,-2.21081817610031,55.6001394687509,3.36520696061497e-12,-3.801766936072108,Northumberland,Northumberland,Carham
511,"Mindrummill Farm 2, Northumberland (Mindrim-Mill Farm)",383700,634800,-251613,7480490,-2.26028100566199,55.6065679309763,3.4490649374062752e-12,-3.8017430747766805,Northumberland,Northumberland,Carham
512,"Dendon, Northumberland (Little Mill)",408010,600490,-208767,7420012,-1.87538544698963,55.2984821939207,2.2566862730778407e-12,-3.802133480440777,Northumberland,Northumberland,Cartington
513,"Buttony Wood Camp, Northumberland",401860,631190,-219528,7474154,-1.9720517425621,55.5744033749516,2.825200897141233e-12,-3.8019321261609234,Northumberland,Northumberland,Chatton
514,"Curls Walls, Northumberland (Carls Walls)",407600,628320,-209402,7469067,-1.88109383817495,55.5485604679131,2.5676244988678374e-12,-3.802019254017349,Northumberland,Northumberland,Chatton
515,"Kay Hill, Northumberland (Low Thor Law)",407010,626990,-210447,7466717,-1.8904782585721,55.5366184417546,2.5893850571969226e-12,-3.8020116502889114,Northumberland,Northumberland,Chatton
516,"Ros Castle, Northumberland (Ross Castle)",408114,625331,-208505,7463782,-1.87303376088207,55.5216945570053,2.5328557652173713e-12,-3.8020315023524462,Northumberland,Northumberland,Chillingham
517,"Hepburn Crags Camp, Northumberland",407432,624689,-209710,7462650,-1.88385273239745,55.5159365500115,2.560059739701763e-12,-3.8020219084766,Northumberland,Northumberland,Chillingham
518,"Blue Crags, Northumberland",394642,576088,-232152,7377260,-2.08545664596257,55.0792379340042,2.0990802084386903e-12,-3.802195870008432,Northumberland,Northumberland,Chollerton
519,"Oxhill Plantation, Northumberland",393997,575744,-233276,7376657,-2.09555217723019,55.0761391690767,2.103314082541446e-12,-3.8021941495962133,Northumberland,Northumberland,Chollerton
520,"Gunnerton Crag Camps, Northumberland (West Gunnar Peak)",391400,574900,-237801,7375175,-2.13620109385525,55.0685161068431,2.131603884207393e-12,-3.8021827192294575,Northumberland,Northumberland,Chollerton
521,"Craster Heugh, Northumberland",425540,619550,-177840,7453457,-1.59756325628777,55.4691531260071,1.6993007770767424e-12,-3.8023713021186247,Northumberland,Northumberland,Craster
522,"Chesters, Northumberland",417240,616480,-192476,7448112,-1.72903720209642,55.4419286037858,2.06243141014526e-12,-3.8022108700137087,Northumberland,Northumberland,Denwick
523,"The Ringses Camp Doddington, Northumberland",401357,632819,-220415,7477037,-1.98002185088434,55.5890422789156,2.8487700497817352e-12,-3.8019244505333654,Northumberland,Northumberland,Doddington
524,"Fenton Hill Camp, Northumberland",397940,635415,-226452,7481632,-2.03425568592059,55.612365354181,2.988268932971253e-12,-3.801879954614292,Northumberland,Northumberland,Doddington
525,"Dod Law West, Northumberland (West Camp Dod Law)",400410,631710,-222088,7475074,-1.99504803981208,55.5790789128288,2.8862644275293818e-12,-3.8019123358752234,Northumberland,Northumberland,Doddington
526,"Roughting Linn Camp, Northumberland",398280,636750,-225852,7483997,-2.02886691800828,55.6243622841407,2.9737152836561677e-12,-3.801884524315931,Northumberland,Northumberland,Doddington
527,"Farhill Crags, Northumberland",412900,634190,-200021,7479431,-1.79681971840358,55.6011946751411,2.326977328494692e-12,-3.802106688050572,Northumberland,Northumberland,Easington
528,"Crook Hill Easington, Northumberland",415840,633520,-194831,7478228,-1.75019844603684,55.5950883040113,2.186414631412558e-12,-3.802160887656323,Northumberland,Northumberland,Easington
529,"Spindlestone Heugh, Northumberland",415240,633920,-195889,7478940,-1.75969735402201,55.5987014791192,2.2149983844561943e-12,-3.8021496622260216,Northumberland,Northumberland,Easington
530,"Camp Plantation, Northumberland (North Charlton Camp)",416220,623180,-194227,7459943,-1.7447712670613,55.5021664369733,2.149293433389507e-12,-3.8021756285629515,Northumberland,Northumberland,Eglingham
531,"Shipley Camp, Northumberland (Shipley Moor)",413940,617690,-198275,7450267,-1.78113891006032,55.4529055668488,2.2215764448087618e-12,-3.8021470940174127,Northumberland,Northumberland,Eglingham
532,"Sandy House Camp, Northumberland (Sandy Ouse Camp)",393150,632180,-234908,7475896,-2.11021646457437,55.5832526539582,3.1619662197342397e-12,-3.801826642086745,Northumberland,Northumberland,Ewart
533,"Flodden Edge Camp, Northumberland",391450,634950,-237920,7480795,-2.13727118408968,55.6081150972436,3.2239522583428704e-12,-3.8018081398218158,Northumberland,Northumberland,Ford
534,"Blackchesters, Northumberland",396380,637930,-229213,7486086,-2.05905501243857,55.6349542512439,3.0457932001486263e-12,-3.8018620515489885,Northumberland,Northumberland,Ford
535,"Broomie Knowe, Northumberland",394290,639570,-232912,7488989,-2.09228794832104,55.6496698031884,3.119639445064385e-12,-3.8018394304442045,Northumberland,Northumberland,Ford
536,"Fordwood Camp, Northumberland",397160,636440,-227832,7483447,-2.04664930172107,55.6215713311742,3.0180184693652546e-12,-3.8018706643623053,Northumberland,Northumberland,Ford
537,"Flodden Camp, Northumberland (South Flodden)",392370,635100,-236295,7481063,-2.12267178475341,55.6094783840417,3.1930920356396563e-12,-3.801817318216264,Northumberland,Northumberland,Ford
538,"Kaimknowe Fort, Northumberland",390100,638500,-240320,7487079,-2.15882928665464,55.6399873510975,3.2659375124940767e-12,-3.8017957560731306,Northumberland,Northumberland,Ford
